[{"name":"Acme","term":"Village","latitude":"51.4972222","longitude":"-113.5086111"},{"name":"Airdrie","term":"City","latitude":"51.2922222","longitude":"-114.0141667"},{"name":"Alberta Beach","term":"Village","latitude":"53.6780555","longitude":"-114.3511111"},{"name":"Alix","term":"Village","latitude":"52.3999999","longitude":"-113.1797221"},{"name":"Alliance","term":"Village","latitude":"52.4344445","longitude":"-111.7852778"},{"name":"Amisk","term":"Village","latitude":"52.5655555","longitude":"-111.0572222"},{"name":"Andrew","term":"Village","latitude":"53.8783333","longitude":"-112.3352778"},{"name":"Argentia Beach","term":"Summer Village","latitude":"53.0536111","longitude":"-114.0163889"},{"name":"Arrowwood","term":"Village","latitude":"50.7394444","longitude":"-113.1483332"},{"name":"Athabasca","term":"Town","latitude":"54.7166666","longitude":"-113.2841667"},{"name":"Banff","term":"Town","latitude":"51.1777778","longitude":"-115.5736111"},{"name":"Barnwell","term":"Village","latitude":"49.7605556","longitude":"-112.2633333"},{"name":"Barons","term":"Village","latitude":"49.9966667","longitude":"-113.0830556"},{"name":"Barrhead","term":"Town","latitude":"54.1216667","longitude":"-114.4036111"},{"name":"Bashaw","term":"Town","latitude":"52.5830555","longitude":"-112.9702778"},{"name":"Bassano","term":"Town","latitude":"50.7875000","longitude":"-112.4683333"},{"name":"Bawlf","term":"Village","latitude":"52.9194444","longitude":"-112.4661110"},{"name":"Beaumont","term":"City","latitude":"53.3525000","longitude":"-113.4152778"},{"name":"Beaverlodge","term":"Town","latitude":"55.2091667","longitude":"-119.4288889"},{"name":"Beiseker","term":"Village","latitude":"51.3850000","longitude":"-113.5361110"},{"name":"Bentley","term":"Village","latitude":"52.4663889","longitude":"-114.0511111"},{"name":"Berwyn","term":"Village","latitude":"56.1463889","longitude":"-117.7363889"},{"name":"Betula Beach","term":"Summer Village","latitude":"53.5430555","longitude":"-114.6694444"},{"name":"Big Valley","term":"Village","latitude":"52.0327778","longitude":"-112.7519444"},{"name":"Birchcliff","term":"Summer Village","latitude":"52.3619445","longitude":"-114.1180556"},{"name":"Bittern Lake","term":"Village","latitude":"53.0080556","longitude":"-113.0566667"},{"name":"Blackfalds","term":"Town","latitude":"52.3783333","longitude":"-113.7961111"},{"name":"Bon Accord","term":"Town","latitude":"53.8369444","longitude":"-113.4122222"},{"name":"Bondiss","term":"Summer Village","latitude":"54.5980556","longitude":"-112.6950000"},{"name":"Bonnyville","term":"Town","latitude":"54.2672222","longitude":"-110.7386111"},{"name":"Bonnyville Beach","term":"Summer Village","latitude":"54.2355555","longitude":"-110.8636110"},{"name":"Bow Island","term":"Town","latitude":"49.8672222","longitude":"-111.3788889"},{"name":"Bowden","term":"Town","latitude":"51.9322222","longitude":"-114.0347222"},{"name":"Boyle","term":"Village","latitude":"54.5897222","longitude":"-112.8066667"},{"name":"Breton","term":"Village","latitude":"53.1086110","longitude":"-114.4724999"},{"name":"Brooks","term":"City","latitude":"50.5672220","longitude":"-111.8950000"},{"name":"Bruderheim","term":"Town","latitude":"53.7997222","longitude":"-112.9283333"},{"name":"Burnstick Lake","term":"Summer Village","latitude":"51.9894445","longitude":"-114.8919444"},{"name":"Calgary","term":"City","latitude":"51.0458333","longitude":"-114.0574999"},{"name":"Calmar","term":"Town","latitude":"53.2577778","longitude":"-113.8108333"},{"name":"Camrose","term":"City","latitude":"53.0247222","longitude":"-112.8241667"},{"name":"Canmore","term":"Town","latitude":"51.0830555","longitude":"-115.3683333"},{"name":"Carbon","term":"Village","latitude":"51.4858333","longitude":"-113.1505556"},{"name":"Cardston","term":"Town","latitude":"49.2000000","longitude":"-113.3038889"},{"name":"Carmangay","term":"Village","latitude":"50.1294444","longitude":"-113.1113888"},{"name":"Carstairs","term":"Town","latitude":"51.5655555","longitude":"-114.0994444"},{"name":"Castle Island","term":"Summer Village","latitude":"53.7088889","longitude":"-114.3402778"},{"name":"Castor","term":"Town","latitude":"52.2191667","longitude":"-111.9036111"},{"name":"Cereal","term":"Hamlet","latitude":"51.4183333","longitude":"-110.8002778"},{"name":"Champion","term":"Village","latitude":"50.2397222","longitude":"-113.1480556"},{"name":"Chauvin","term":"Village","latitude":"52.6936111","longitude":"-110.1411111"},{"name":"Chestermere","term":"Town","latitude":"51.0333333","longitude":"-113.8166667"},{"name":"Chipman","term":"Village","latitude":"53.6983333","longitude":"-112.6377778"},{"name":"Claresholm","term":"Town","latitude":"50.0197222","longitude":"-113.5827778"},{"name":"Clive","term":"Village","latitude":"52.4752777","longitude":"-113.4483332"},{"name":"Clyde","term":"Village","latitude":"54.1519444","longitude":"-113.6358333"},{"name":"Coaldale","term":"Town","latitude":"49.7277777","longitude":"-112.6186111"},{"name":"Coalhurst","term":"Town","latitude":"49.7486111","longitude":"-112.9294444"},{"name":"Cochrane","term":"Town","latitude":"51.2066667","longitude":"-114.4669444"},{"name":"Cold Lake","term":"City","latitude":"54.4500000","longitude":"-110.1666667"},{"name":"Consort","term":"Village","latitude":"52.0077778","longitude":"-110.7741667"},{"name":"Coronation","term":"Town","latitude":"52.0947223","longitude":"-111.4477778"},{"name":"Coutts","term":"Village","latitude":"49.0027778","longitude":"-111.9588889"},{"name":"Cowley","term":"Village","latitude":"49.5711110","longitude":"-114.0749999"},{"name":"Cremona","term":"Village","latitude":"51.5455555","longitude":"-114.4924999"},{"name":"Crossfield","term":"Town","latitude":"51.4305556","longitude":"-114.0308333"},{"name":"Crowsnest Pass","term":"Town","latitude":"49.5888889","longitude":"-114.5083333"},{"name":"Crystal Springs","term":"Summer Village","latitude":"52.9758334","longitude":"-114.0369444"},{"name":"Czar","term":"Village","latitude":"52.4547222","longitude":"-110.8283333"},{"name":"Daysland","term":"Town","latitude":"52.8641666","longitude":"-112.2550000"},{"name":"Delburne","term":"Village","latitude":"52.1980555","longitude":"-113.2347222"},{"name":"Delia","term":"Village","latitude":"51.6305556","longitude":"-112.3738889"},{"name":"Derwent","term":"Hamlet","latitude":"53.6544444","longitude":"-110.9661111"},{"name":"Devon","term":"Town","latitude":"53.3622223","longitude":"-113.7225000"},{"name":"Dewberry","term":"Hamlet","latitude":"53.5880555","longitude":"-110.5250000"},{"name":"Diamond Valley","term":"Town","latitude":"50.6798620","longitude":"-114.2535770"},{"name":"Didsbury","term":"Town","latitude":"51.6594444","longitude":"-114.1375000"},{"name":"Donalda","term":"Village","latitude":"52.5836111","longitude":"-112.5741667"},{"name":"Donnelly","term":"Village","latitude":"55.7288889","longitude":"-117.1047221"},{"name":"Drayton Valley","term":"Town","latitude":"53.2241667","longitude":"-114.9808333"},{"name":"Drumheller","term":"Town","latitude":"51.4644444","longitude":"-112.7188889"},{"name":"Duchess","term":"Village","latitude":"50.7311110","longitude":"-111.9063888"},{"name":"Eckville","term":"Town","latitude":"52.3600000","longitude":"-114.3669444"},{"name":"Edberg","term":"Village","latitude":"52.7847222","longitude":"-112.7891667"},{"name":"Edgerton","term":"Village","latitude":"52.7586111","longitude":"-110.4580556"},{"name":"Edmonton","term":"City","latitude":"53.5344445","longitude":"-113.4902778"},{"name":"Edson","term":"Town","latitude":"53.5836111","longitude":"-116.4327778"},{"name":"Elk Point","term":"Town","latitude":"53.9011111","longitude":"-110.9005556"},{"name":"Elnora","term":"Village","latitude":"51.9905556","longitude":"-113.2008333"},{"name":"Empress","term":"Village","latitude":"50.9555556","longitude":"-110.0058333"},{"name":"Entwistle","term":"Village","latitude":"53.5944445","longitude":"-114.9958333"},{"name":"Fairview","term":"Town","latitude":"56.0672222","longitude":"-118.3841667"},{"name":"Falher","term":"Town","latitude":"55.7372222","longitude":"-117.2013889"},{"name":"Ferintosh","term":"Village","latitude":"52.7658333","longitude":"-112.9716667"},{"name":"Foremost","term":"Village","latitude":"49.4763889","longitude":"-111.4469444"},{"name":"Forestburg","term":"Village","latitude":"52.5838889","longitude":"-112.0644444"},{"name":"Fort Macleod","term":"Town","latitude":"49.7230555","longitude":"-113.4041667"},{"name":"Fort Saskatchewan","term":"City","latitude":"53.7111111","longitude":"-113.2177778"},{"name":"Fox Creek","term":"Town","latitude":"54.3941666","longitude":"-116.8066667"},{"name":"Gadsby","term":"Hamlet","latitude":"52.2925000","longitude":"-112.3466667"},{"name":"Galahad","term":"Village","latitude":"52.5141670","longitude":"-111.9305550"},{"name":"Ghost Lake","term":"Summer Village","latitude":"51.2083333","longitude":"-114.7650000"},{"name":"Gibbons","term":"Town","latitude":"53.8297222","longitude":"-113.3283333"},{"name":"Girouxville","term":"Village","latitude":"55.7536111","longitude":"-117.3388889"},{"name":"Glendon","term":"Village","latitude":"54.2525000","longitude":"-111.1602778"},{"name":"Glenwood","term":"Village","latitude":"49.3644445","longitude":"-113.5113889"},{"name":"Golden Days","term":"Summer Village","latitude":"53.0577778","longitude":"-114.0658333"},{"name":"Grande Prairie","term":"City","latitude":"55.1708334","longitude":"-118.7961111"},{"name":"Grandview","term":"Summer Village","latitude":"52.9922222","longitude":"-114.0583333"},{"name":"Granum","term":"Hamlet","latitude":"49.8711111","longitude":"-113.5083333"},{"name":"Grimshaw","term":"Town","latitude":"56.1886112","longitude":"-117.6058333"},{"name":"Gull Lake","term":"Summer Village","latitude":"52.4622222","longitude":"-113.9411111"},{"name":"Half Moon Bay","term":"Summer Village","latitude":"52.3469445","longitude":"-114.1758333"},{"name":"Halkirk","term":"Village","latitude":"52.2825000","longitude":"-112.1536111"},{"name":"Hanna","term":"Town","latitude":"51.6458334","longitude":"-111.9252778"},{"name":"Hardisty","term":"Town","latitude":"52.6750000","longitude":"-111.3044444"},{"name":"Hay Lakes","term":"Village","latitude":"53.1966666","longitude":"-113.0572221"},{"name":"Heisler","term":"Village","latitude":"52.6686111","longitude":"-112.2227778"},{"name":"High Level","term":"Town","latitude":"58.5180555","longitude":"-117.1288889"},{"name":"High Prairie","term":"Town","latitude":"55.4322223","longitude":"-116.4944444"},{"name":"High River","term":"Town","latitude":"50.5797223","longitude":"-113.8741667"},{"name":"Hill Spring","term":"Village","latitude":"49.2930555","longitude":"-113.6222222"},{"name":"Hines Creek","term":"Village","latitude":"56.2463889","longitude":"-118.6050000"},{"name":"Hinton","term":"Town","latitude":"53.4111111","longitude":"-117.5627778"},{"name":"Holden","term":"Village","latitude":"53.2333333","longitude":"-112.2338889"},{"name":"Horseshoe Bay","term":"Summer Village","latitude":"54.1250000","longitude":"-111.3663889"},{"name":"Hughenden","term":"Village","latitude":"52.5105556","longitude":"-110.9672222"},{"name":"Hussar","term":"Village","latitude":"51.0413889","longitude":"-112.6816667"},{"name":"Hythe","term":"Village","latitude":"55.3272222","longitude":"-119.5538889"},{"name":"Innisfail","term":"Town","latitude":"52.0281390","longitude":"-113.9506390"},{"name":"Innisfree","term":"Village","latitude":"53.3825000","longitude":"-111.5308333"},{"name":"Irma","term":"Village","latitude":"52.9119444","longitude":"-111.2283333"},{"name":"Irricana","term":"Town","latitude":"51.3236111","longitude":"-113.6080556"},{"name":"Island Lake","term":"Summer Village","latitude":"54.8425000","longitude":"-113.5502778"},{"name":"Island Lake South","term":"Summer Village","latitude":"54.8261111","longitude":"-113.5341667"},{"name":"Itaska Beach","term":"Summer Village","latitude":"53.0722222","longitude":"-114.0800000"},{"name":"Jarvis Bay","term":"Summer Village","latitude":"52.3352778","longitude":"-114.0744444"},{"name":"Kapasiwin","term":"Summer Village","latitude":"53.5441666","longitude":"-114.4447222"},{"name":"Killam","term":"Town","latitude":"52.7897223","longitude":"-111.8552778"},{"name":"Kinuso","term":"Village","latitude":"55.3319440","longitude":"-115.4352780"},{"name":"Kitscoty","term":"Village","latitude":"53.3419444","longitude":"-110.3333333"},{"name":"Lacombe","term":"City","latitude":"52.4644440","longitude":"-113.7341670"},{"name":"Lakeview","term":"Summer Village","latitude":"53.5597222","longitude":"-114.4575000"},{"name":"Lamont","term":"Town","latitude":"53.7591666","longitude":"-112.7844444"},{"name":"Larkspur","term":"Summer Village","latitude":"54.4138889","longitude":"-113.7241666"},{"name":"Lavoy","term":"Village","latitude":"53.4566667","longitude":"-111.8652778"},{"name":"Leduc","term":"City","latitude":"53.2666666","longitude":"-113.5458333"},{"name":"Legal","term":"Town","latitude":"53.9495000","longitude":"-113.5951110"},{"name":"Lethbridge","term":"City","latitude":"49.6936111","longitude":"-112.8419444"},{"name":"Linden","term":"Village","latitude":"51.5905556","longitude":"-113.4883333"},{"name":"Lloydminster","term":"City","latitude":"53.2777778","longitude":"-110.0308333"},{"name":"Lomond","term":"Village","latitude":"50.3494445","longitude":"-112.6405556"},{"name":"Longview","term":"Village","latitude":"50.5308333","longitude":"-114.2308333"},{"name":"Lougheed","term":"Village","latitude":"52.7444444","longitude":"-111.5427778"},{"name":"Ma-Me-O Beach","term":"Summer Village","latitude":"52.9724999","longitude":"-113.9647221"},{"name":"Magrath","term":"Town","latitude":"49.4077778","longitude":"-112.8666667"},{"name":"Manning","term":"Town","latitude":"56.9222222","longitude":"-117.6283333"},{"name":"Mannville","term":"Village","latitude":"53.3402778","longitude":"-111.1777778"},{"name":"Marwayne","term":"Village","latitude":"53.5175000","longitude":"-110.3300000"},{"name":"Mayerthorpe","term":"Town","latitude":"53.9547222","longitude":"-115.1380556"},{"name":"McLennan","term":"Town","latitude":"55.7086111","longitude":"-116.9072222"},{"name":"Medicine Hat","term":"City","latitude":"50.0408334","longitude":"-110.6766667"},{"name":"Mewatha Beach","term":"Summer Village","latitude":"54.6077778","longitude":"-112.7383333"},{"name":"Milk River","term":"Town","latitude":"49.1500000","longitude":"-112.0866667"},{"name":"Millet","term":"Town","latitude":"53.0961111","longitude":"-113.4727778"},{"name":"Milo","term":"Village","latitude":"50.5700000","longitude":"-112.8819444"},{"name":"Minburn","term":"Village","latitude":"53.3155556","longitude":"-111.3641667"},{"name":"Morinville","term":"Town","latitude":"53.8027778","longitude":"-113.6438889"},{"name":"Morrin","term":"Village","latitude":"51.6602778","longitude":"-112.7672222"},{"name":"Mundare","term":"Town","latitude":"53.5938889","longitude":"-112.3416667"},{"name":"Munson","term":"Village","latitude":"51.5633333","longitude":"-112.7383333"},{"name":"Myrnam","term":"Village","latitude":"53.6616667","longitude":"-111.2302778"},{"name":"Nakamun Park","term":"Summer Village","latitude":"53.8802778","longitude":"-114.2136111"},{"name":"Nampa","term":"Village","latitude":"56.0372222","longitude":"-117.1330556"},{"name":"Nanton","term":"Town","latitude":"50.3469444","longitude":"-113.7733333"},{"name":"New Norway","term":"Hamlet","latitude":"52.8688890","longitude":"-112.9511110"},{"name":"New Sarepta","term":"Hamlet","latitude":"53.2741670","longitude":"-113.1455560"},{"name":"Nobleford","term":"Town","latitude":"49.8813889","longitude":"-113.0558333"},{"name":"Norglenwold","term":"Summer Village","latitude":"52.3261111","longitude":"-114.1255556"},{"name":"Norris Beach","term":"Summer Village","latitude":"52.9683333","longitude":"-114.0202778"},{"name":"Okotoks","term":"Town","latitude":"50.7261111","longitude":"-113.9775000"},{"name":"Olds","term":"Town","latitude":"51.7919444","longitude":"-114.1075000"},{"name":"Onoway","term":"Village","latitude":"53.7025000","longitude":"-114.1919444"},{"name":"Oyen","term":"Town","latitude":"51.3527778","longitude":"-110.4833333"},{"name":"Paradise Valley","term":"Village","latitude":"53.0327778","longitude":"-110.2958333"},{"name":"Parkland Beach","term":"Summer Village","latitude":"52.6077778","longitude":"-114.0575000"},{"name":"Peace River","term":"Town","latitude":"56.2358334","longitude":"-117.2986111"},{"name":"Pelican Narrows","term":"Summer Village","latitude":"54.2633333","longitude":"-110.8936111"},{"name":"Penhold","term":"Town","latitude":"52.1369444","longitude":"-113.8730556"},{"name":"Picture Butte","term":"Town","latitude":"49.8766667","longitude":"-112.7788889"},{"name":"Pincher Creek","term":"Town","latitude":"49.4852778","longitude":"-113.9475000"},{"name":"Point Alison","term":"Summer Village","latitude":"53.5502778","longitude":"-114.4858333"},{"name":"Ponoka","term":"Town","latitude":"52.6750000","longitude":"-113.5800000"},{"name":"Poplar Bay","term":"Summer Village","latitude":"53.0108333","longitude":"-114.1136111"},{"name":"Provost","term":"Town","latitude":"52.3533333","longitude":"-110.2647222"},{"name":"Rainbow Lake","term":"Town","latitude":"58.5044444","longitude":"-119.4002778"},{"name":"Raymond","term":"Town","latitude":"49.4650000","longitude":"-112.6611111"},{"name":"Red Deer","term":"City","latitude":"52.2686111","longitude":"-113.8102778"},{"name":"Redcliff","term":"Town","latitude":"50.0775000","longitude":"-110.7855556"},{"name":"Redwater","term":"Town","latitude":"53.9508334","longitude":"-113.1075000"},{"name":"Rimbey","term":"Town","latitude":"52.6391667","longitude":"-114.2366667"},{"name":"Rochon Sands","term":"Summer Village","latitude":"52.4544445","longitude":"-112.8738889"},{"name":"Rocky Mountain House","term":"Town","latitude":"52.3747222","longitude":"-114.9219444"},{"name":"Rockyford","term":"Village","latitude":"51.2341667","longitude":"-113.1425000"},{"name":"Rosalind","term":"Village","latitude":"52.7897223","longitude":"-112.4438889"},{"name":"Rosemary","term":"Village","latitude":"50.7575000","longitude":"-112.0897222"},{"name":"Ross Haven","term":"Summer Village","latitude":"53.7341667","longitude":"-114.4075000"},{"name":"Rycroft","term":"Village","latitude":"55.7558333","longitude":"-118.7086111"},{"name":"Ryley","term":"Village","latitude":"53.2908333","longitude":"-112.4297222"},{"name":"Sandy Beach","term":"Summer Village","latitude":"53.8077777","longitude":"-114.0419444"},{"name":"Sangudo","term":"Village","latitude":"53.8891667","longitude":"-114.9041667"},{"name":"Seba Beach","term":"Summer Village","latitude":"53.5563889","longitude":"-114.7361111"},{"name":"Sedgewick","term":"Town","latitude":"52.7747223","longitude":"-111.6927778"},{"name":"Sexsmith","term":"Town","latitude":"55.3502778","longitude":"-118.7816667"},{"name":"Silver Beach","term":"Summer Village","latitude":"53.0372223","longitude":"-113.9911111"},{"name":"Silver Sands","term":"Summer Village","latitude":"53.6369444","longitude":"-114.6569444"},{"name":"Slave Lake","term":"Town","latitude":"55.2822222","longitude":"-114.7702778"},{"name":"Smoky Lake","term":"Town","latitude":"54.1100000","longitude":"-112.4758333"},{"name":"South Baptiste","term":"Summer Village","latitude":"54.7238889","longitude":"-113.5675000"},{"name":"South View","term":"Summer Village","latitude":"53.6511111","longitude":"-114.6633333"},{"name":"Spirit River","term":"Town","latitude":"55.7786111","longitude":"-118.8366667"},{"name":"Spring Lake","term":"Village","latitude":"53.5186111","longitude":"-114.1330556"},{"name":"Spruce Grove","term":"City","latitude":"53.5538889","longitude":"-113.9022222"},{"name":"St. Albert","term":"City","latitude":"53.6369444","longitude":"-113.6202778"},{"name":"St. Paul","term":"Town","latitude":"53.9927777","longitude":"-111.2961111"},{"name":"Standard","term":"Village","latitude":"51.1097222","longitude":"-112.9836111"},{"name":"Stavely","term":"Town","latitude":"50.1611111","longitude":"-113.6416667"},{"name":"Stettler","term":"Town","latitude":"52.3238889","longitude":"-112.7044444"},{"name":"Stirling","term":"Village","latitude":"49.4969444","longitude":"-112.5130556"},{"name":"Stony Plain","term":"Town","latitude":"53.5263889","longitude":"-114.0069444"},{"name":"Strathmore","term":"Town","latitude":"51.0455556","longitude":"-113.3930556"},{"name":"Strome","term":"Village","latitude":"52.8108333","longitude":"-112.0672222"},{"name":"Sunbreaker Cove","term":"Summer Village","latitude":"52.3875000","longitude":"-114.1872222"},{"name":"Sundance Beach","term":"Summer Village","latitude":"53.0822222","longitude":"-114.1208333"},{"name":"Sundre","term":"Town","latitude":"51.7955555","longitude":"-114.6377778"},{"name":"Sunrise Beach","term":"Summer Village","latitude":"53.7855556","longitude":"-114.0469444"},{"name":"Sunset Beach","term":"Summer Village","latitude":"54.7275000","longitude":"-113.5444444"},{"name":"Sunset Point","term":"Summer Village","latitude":"53.6919444","longitude":"-114.3452778"},{"name":"Swan Hills","term":"Town","latitude":"54.7166666","longitude":"-115.4016667"},{"name":"Sylvan Lake","term":"Town","latitude":"52.3088888","longitude":"-114.0977778"},{"name":"Taber","term":"Town","latitude":"49.7847500","longitude":"-112.1509720"},{"name":"Thorhild","term":"Hamlet","latitude":"54.1588890","longitude":"-113.1252780"},{"name":"Thorsby","term":"Town","latitude":"53.2269445","longitude":"-114.0480556"},{"name":"Three Hills","term":"Town","latitude":"51.7030555","longitude":"-113.2686111"},{"name":"Tilley","term":"Hamlet","latitude":"50.4522221","longitude":"-111.6533331"},{"name":"Tofield","term":"Town","latitude":"53.3708333","longitude":"-112.6658333"},{"name":"Trochu","term":"Town","latitude":"51.8286111","longitude":"-113.2280556"},{"name":"Two Hills","term":"Town","latitude":"53.7111111","longitude":"-111.7447222"},{"name":"Val Quentin","term":"Summer Village","latitude":"53.6688888","longitude":"-114.3766667"},{"name":"Valleyview","term":"Town","latitude":"55.0659440","longitude":"-117.2818610"},{"name":"Vauxhall","term":"Town","latitude":"50.0683333","longitude":"-112.1066667"},{"name":"Vegreville","term":"Town","latitude":"53.4955555","longitude":"-112.0516667"},{"name":"Vermilion","term":"Town","latitude":"53.3547222","longitude":"-110.8527778"},{"name":"Veteran","term":"Village","latitude":"52.0027778","longitude":"-111.1208333"},{"name":"Viking","term":"Town","latitude":"53.0947222","longitude":"-111.7755556"},{"name":"Vilna","term":"Village","latitude":"54.1166666","longitude":"-111.9208333"},{"name":"Vulcan","term":"Town","latitude":"50.4041666","longitude":"-113.2605556"},{"name":"Wabamun","term":"Hamlet","latitude":"53.5583333","longitude":"-114.4730556"},{"name":"Wainwright","term":"Town","latitude":"52.8341666","longitude":"-110.8580556"},{"name":"Waiparous","term":"Summer Village","latitude":"51.2041667","longitude":"-114.8325000"},{"name":"Warburg","term":"Village","latitude":"53.1783334","longitude":"-114.3208333"},{"name":"Warner","term":"Village","latitude":"49.2827778","longitude":"-112.2077778"},{"name":"Waskatenau","term":"Village","latitude":"54.0938889","longitude":"-112.7841667"},{"name":"Wembley","term":"Town","latitude":"55.1555556","longitude":"-119.1458333"},{"name":"West Baptiste","term":"Summer Village","latitude":"54.7625000","longitude":"-113.5672222"},{"name":"West Cove","term":"Summer Village","latitude":"53.7033334","longitude":"-114.5019444"},{"name":"Westlock","term":"Town","latitude":"54.1552778","longitude":"-113.8569444"},{"name":"Wetaskiwin","term":"City","latitude":"52.9691667","longitude":"-113.3769444"},{"name":"Whispering Hills","term":"Summer Village","latitude":"54.7602778","longitude":"-113.5527778"},{"name":"White Sands","term":"Summer Village","latitude":"52.4694444","longitude":"-112.8152778"},{"name":"Whitecourt","term":"Town","latitude":"54.1411111","longitude":"-115.6841667"},{"name":"Yellowstone","term":"Summer Village","latitude":"53.7341667","longitude":"-114.3808333"},{"name":"Youngstown","term":"Village","latitude":"51.5288889","longitude":"-111.2102778"}]