[{"name":"100 Mile House","term":"District Municipality","latitude":"51.6427780","longitude":"-121.2955560"},{"name":"Abbotsford","term":"City","latitude":"49.0522220","longitude":"-122.3291670"},{"name":"Alert Bay","term":"Village","latitude":"50.5838890","longitude":"-126.9277780"},{"name":"Anmore","term":"Village","latitude":"49.3144440","longitude":"-122.8563890"},{"name":"Armstrong","term":"City","latitude":"50.4483330","longitude":"-119.1966670"},{"name":"Ashcroft","term":"Village","latitude":"50.7213890","longitude":"-121.2836110"},{"name":"Barriere","term":"District Municipality","latitude":"51.1797220","longitude":"-120.1236110"},{"name":"Belcarra","term":"Village","latitude":"49.3136110","longitude":"-122.9150000"},{"name":"Bowen Island","term":"District Municipality","latitude":"49.3797220","longitude":"-123.3441670"},{"name":"Burnaby","term":"City","latitude":"49.2427780","longitude":"-122.9727780"},{"name":"Burns Lake","term":"Village","latitude":"54.2302780","longitude":"-125.7644440"},{"name":"Cache Creek","term":"Village","latitude":"50.8119440","longitude":"-121.3233340"},{"name":"Campbell River","term":"City","latitude":"50.0230560","longitude":"-125.2436110"},{"name":"Canal Flats","term":"Village","latitude":"50.1602780","longitude":"-115.8088890"},{"name":"Castlegar","term":"City","latitude":"49.3244440","longitude":"-117.6669440"},{"name":"Central Saanich","term":"District Municipality","latitude":"48.5944440","longitude":"-123.4208330"},{"name":"Chase","term":"Village","latitude":"50.8191670","longitude":"-119.6861110"},{"name":"Chetwynd","term":"District Municipality","latitude":"55.6958330","longitude":"-121.6383330"},{"name":"Chilliwack","term":"City","latitude":"49.1577780","longitude":"-121.9508330"},{"name":"City of West Kelowna","term":"City","latitude":"49.8297222","longitude":"-119.6283333"},{"name":"Clearwater","term":"District Municipality","latitude":"51.6455560","longitude":"-120.0325000"},{"name":"Clinton","term":"Village","latitude":"51.0916670","longitude":"-121.5866670"},{"name":"Coldstream","term":"District Municipality","latitude":"50.2238890","longitude":"-119.2300000"},{"name":"Colwood","term":"City","latitude":"48.4236110","longitude":"-123.4933330"},{"name":"Comox","term":"Town","latitude":"49.6727780","longitude":"-124.9277780"},{"name":"Coquitlam","term":"City","latitude":"49.2841670","longitude":"-122.7936110"},{"name":"Courtenay","term":"City","latitude":"49.6894440","longitude":"-124.9958330"},{"name":"Cranbrook","term":"City","latitude":"49.5080560","longitude":"-115.7469440"},{"name":"Creston","term":"Town","latitude":"49.0975000","longitude":"-116.5130560"},{"name":"Cumberland","term":"Village","latitude":"49.6186110","longitude":"-125.0325000"},{"name":"Dawson Creek","term":"City","latitude":"55.7605560","longitude":"-120.2355560"},{"name":"Delta","term":"City","latitude":"49.0847220","longitude":"-123.0586110"},{"name":"Duncan","term":"City","latitude":"48.7786110","longitude":"-123.7080560"},{"name":"Elkford","term":"District Municipality","latitude":"50.0244440","longitude":"-114.9216670"},{"name":"Enderby","term":"City","latitude":"50.5505560","longitude":"-119.1394440"},{"name":"Esquimalt","term":"District Municipality","latitude":"48.4297220","longitude":"-123.4144440"},{"name":"Fernie","term":"City","latitude":"49.5041670","longitude":"-115.0627780"},{"name":"Fort St. James","term":"District Municipality","latitude":"54.4444440","longitude":"-124.2591670"},{"name":"Fort St. John","term":"City","latitude":"56.2525000","longitude":"-120.8466670"},{"name":"Fraser Lake","term":"Village","latitude":"54.0602780","longitude":"-124.8438890"},{"name":"Fruitvale","term":"Village","latitude":"49.1150000","longitude":"-117.5427780"},{"name":"Gibsons","term":"Town","latitude":"49.4002780","longitude":"-123.5088890"},{"name":"Gold River","term":"Village","latitude":"49.7813890","longitude":"-126.0469440"},{"name":"Golden","term":"Town","latitude":"51.2977780","longitude":"-116.9647220"},{"name":"Grand Forks","term":"City","latitude":"49.0311110","longitude":"-118.4391670"},{"name":"Granisle","term":"Village","latitude":"54.8847220","longitude":"-126.2066670"},{"name":"Greenwood","term":"City","latitude":"49.0883330","longitude":"-118.6763890"},{"name":"Harrison Hot Springs","term":"Village","latitude":"49.2988890","longitude":"-121.7844440"},{"name":"Hazelton","term":"Village","latitude":"55.2558330","longitude":"-127.6755560"},{"name":"Highlands","term":"District Municipality","latitude":"48.4805560","longitude":"-123.5119440"},{"name":"Hope","term":"District Municipality","latitude":"49.3800000","longitude":"-121.4413890"},{"name":"Houston","term":"District Municipality","latitude":"54.3983330","longitude":"-126.6483330"},{"name":"Hudson's Hope","term":"District Municipality","latitude":"56.0258330","longitude":"-121.9136110"},{"name":"Invermere","term":"District Municipality","latitude":"50.5058330","longitude":"-116.0305560"},{"name":"Kamloops","term":"City","latitude":"50.6758330","longitude":"-120.3394440"},{"name":"Kaslo","term":"Village","latitude":"49.9105560","longitude":"-116.9050000"},{"name":"Kelowna","term":"City","latitude":"49.8880560","longitude":"-119.4955560"},{"name":"Kent","term":"District Municipality","latitude":"49.2380560","longitude":"-121.7625000"},{"name":"Keremeos","term":"Village","latitude":"49.2047220","longitude":"-119.8297220"},{"name":"Kimberley","term":"City","latitude":"49.6850000","longitude":"-115.9816670"},{"name":"Kitimat","term":"District Municipality","latitude":"54.0533330","longitude":"-128.6522220"},{"name":"Ladysmith","term":"Town","latitude":"48.9933330","longitude":"-123.8155560"},{"name":"Lake Country","term":"District Municipality","latitude":"50.0302780","longitude":"-119.4025000"},{"name":"Lake Cowichan","term":"Town","latitude":"48.8258330","longitude":"-124.0563890"},{"name":"Langford","term":"City","latitude":"48.4497220","longitude":"-123.5044440"},{"name":"Langley","term":"District Municipality","latitude":"49.1202780","longitude":"-122.6597220"},{"name":"Langley","term":"City","latitude":"49.1025000","longitude":"-122.6580560"},{"name":"Lantzville","term":"District Municipality","latitude":"49.2505560","longitude":"-124.0744440"},{"name":"Lillooet","term":"District Municipality","latitude":"50.6938890","longitude":"-121.9336110"},{"name":"Lions Bay","term":"Village","latitude":"49.4586110","longitude":"-123.2352780"},{"name":"Logan Lake","term":"District Municipality","latitude":"50.4944440","longitude":"-120.8133330"},{"name":"Lumby","term":"Village","latitude":"50.2508330","longitude":"-118.9619440"},{"name":"Lytton","term":"Village","latitude":"50.2311110","longitude":"-121.5813890"},{"name":"Mackenzie","term":"District Municipality","latitude":"55.3244440","longitude":"-123.0927780"},{"name":"Maple Ridge","term":"City","latitude":"49.2200000","longitude":"-122.5988890"},{"name":"Masset","term":"Village","latitude":"54.0111110","longitude":"-132.1466670"},{"name":"McBride","term":"Village","latitude":"53.3041670","longitude":"-120.1638890"},{"name":"Merritt","term":"City","latitude":"50.1125000","longitude":"-120.7883330"},{"name":"Metchosin","term":"District Municipality","latitude":"48.3791670","longitude":"-123.5358330"},{"name":"Midway","term":"Village","latitude":"49.0083330","longitude":"-118.7783330"},{"name":"Mission","term":"District Municipality","latitude":"49.1591670","longitude":"-122.2838890"},{"name":"Montrose","term":"Village","latitude":"49.0788890","longitude":"-117.5941670"},{"name":"Nakusp","term":"Village","latitude":"50.2391670","longitude":"-117.7975000"},{"name":"Nanaimo","term":"City","latitude":"49.1638890","longitude":"-123.9380560"},{"name":"Nelson","term":"City","latitude":"49.4933330","longitude":"-117.2958330"},{"name":"New Denver","term":"Village","latitude":"49.9913890","longitude":"-117.3772220"},{"name":"New Hazelton","term":"District Municipality","latitude":"55.2433330","longitude":"-127.5869440"},{"name":"New Westminster","term":"City","latitude":"49.2066670","longitude":"-122.9105560"},{"name":"North Cowichan","term":"District Municipality","latitude":"48.8247220","longitude":"-123.7197220"},{"name":"North Saanich","term":"District Municipality","latitude":"48.6563890","longitude":"-123.4322220"},{"name":"North Vancouver","term":"District Municipality","latitude":"49.3361110","longitude":"-123.0780560"},{"name":"North Vancouver","term":"City","latitude":"49.3205560","longitude":"-123.0738890"},{"name":"Northern Rockies Regional Municipality","term":"District Municipality","latitude":"58.8038890","longitude":"-122.7066670"},{"name":"Oak Bay","term":"District Municipality","latitude":"48.4258330","longitude":"-123.3180560"},{"name":"Oliver","term":"Town","latitude":"49.1825000","longitude":"-119.5508330"},{"name":"Osoyoos","term":"Town","latitude":"49.0325000","longitude":"-119.4683330"},{"name":"Parksville","term":"City","latitude":"49.3180560","longitude":"-124.3113890"},{"name":"Peachland","term":"District Municipality","latitude":"49.7738890","longitude":"-119.7363890"},{"name":"Pemberton","term":"Village","latitude":"50.3205560","longitude":"-122.8077780"},{"name":"Penticton","term":"City","latitude":"49.5008330","longitude":"-119.5938890"},{"name":"Pitt Meadows","term":"City","latitude":"49.2205560","longitude":"-122.6902780"},{"name":"Port Alberni","term":"City","latitude":"49.2344440","longitude":"-124.8058330"},{"name":"Port Alice","term":"Village","latitude":"50.4266670","longitude":"-127.4880560"},{"name":"Port Clements","term":"Village","latitude":"53.6855560","longitude":"-132.1836110"},{"name":"Port Coquitlam","term":"City","latitude":"49.2619440","longitude":"-122.7802780"},{"name":"Port Edward","term":"District Municipality","latitude":"54.2205560","longitude":"-130.2894440"},{"name":"Port Hardy","term":"District Municipality","latitude":"50.7244440","longitude":"-127.4980560"},{"name":"Port McNeill","term":"Town","latitude":"50.5894440","longitude":"-127.0836110"},{"name":"Port Moody","term":"City","latitude":"49.2822220","longitude":"-122.8294440"},{"name":"Pouce Coupe","term":"Village","latitude":"55.7147220","longitude":"-120.1336110"},{"name":"Powell River","term":"City","latitude":"49.8355560","longitude":"-124.5244440"},{"name":"Prince George","term":"City","latitude":"53.9130560","longitude":"-122.7452780"},{"name":"Prince Rupert","term":"City","latitude":"54.3127780","longitude":"-130.3252780"},{"name":"Princeton","term":"Town","latitude":"49.4602780","longitude":"-120.5077780"},{"name":"Qualicum Beach","term":"Town","latitude":"49.3480560","longitude":"-124.4438890"},{"name":"Quesnel","term":"City","latitude":"52.9797220","longitude":"-122.4936110"},{"name":"Radium Hot Springs","term":"Village","latitude":"50.6200000","longitude":"-116.0761110"},{"name":"Revelstoke","term":"City","latitude":"50.9988890","longitude":"-118.1958330"},{"name":"Richmond","term":"City","latitude":"49.1633330","longitude":"-123.1633330"},{"name":"Rossland","term":"City","latitude":"49.0769440","longitude":"-117.8022220"},{"name":"Saanich","term":"District Municipality","latitude":"48.4566670","longitude":"-123.3733330"},{"name":"Salmo","term":"Village","latitude":"49.1933330","longitude":"-117.2786110"},{"name":"Salmon Arm","term":"City","latitude":"50.7013890","longitude":"-119.2780560"},{"name":"Sayward","term":"Village","latitude":"50.3788890","longitude":"-125.9594440"},{"name":"Sechelt","term":"District Municipality","latitude":"49.4713889","longitude":"-123.7630556"},{"name":"Sicamous","term":"District Municipality","latitude":"50.8361110","longitude":"-118.9800000"},{"name":"Sidney","term":"Town","latitude":"48.6505560","longitude":"-123.3983330"},{"name":"Silverton","term":"Village","latitude":"49.9527780","longitude":"-117.3572220"},{"name":"Slocan","term":"Village","latitude":"49.7677780","longitude":"-117.4661110"},{"name":"Smithers","term":"Town","latitude":"54.7791670","longitude":"-127.1761110"},{"name":"Sooke","term":"District Municipality","latitude":"48.3827780","longitude":"-123.7319440"},{"name":"Spallumcheen","term":"District Municipality","latitude":"50.4025000","longitude":"-119.2175000"},{"name":"Sparwood","term":"District Municipality","latitude":"49.7333330","longitude":"-114.8858330"},{"name":"Squamish","term":"District Municipality","latitude":"49.6980560","longitude":"-123.1558330"},{"name":"Stewart","term":"District Municipality","latitude":"55.9383330","longitude":"-129.9911110"},{"name":"Summerland","term":"District Municipality","latitude":"49.6022220","longitude":"-119.6819440"},{"name":"Sun Peaks","term":"Mountain Resort Municipality","latitude":"50.8844440","longitude":"-119.8794440"},{"name":"Surrey","term":"City","latitude":"49.1116670","longitude":"-122.8275000"},{"name":"Tahsis","term":"Village","latitude":"49.9163890","longitude":"-126.6644440"},{"name":"Taylor","term":"District Municipality","latitude":"56.1591670","longitude":"-120.6866670"},{"name":"Telkwa","term":"Village","latitude":"54.6966670","longitude":"-127.0508330"},{"name":"Terrace","term":"City","latitude":"54.5163890","longitude":"-128.5997220"},{"name":"Tofino","term":"District Municipality","latitude":"49.1530560","longitude":"-125.9044440"},{"name":"Trail","term":"City","latitude":"49.0944440","longitude":"-117.7091670"},{"name":"Tumbler Ridge","term":"District Municipality","latitude":"55.1261110","longitude":"-120.9980560"},{"name":"Ucluelet","term":"District Municipality","latitude":"48.9427780","longitude":"-125.5461110"},{"name":"Valemount","term":"Village","latitude":"52.8294440","longitude":"-119.2800000"},{"name":"Vancouver","term":"City","latitude":"49.2611110","longitude":"-123.1138890"},{"name":"Vanderhoof","term":"District Municipality","latitude":"54.0175000","longitude":"-124.0075000"},{"name":"Vernon","term":"City","latitude":"50.2655556","longitude":"-119.2713889"},{"name":"Victoria","term":"City","latitude":"48.4283330","longitude":"-123.3647220"},{"name":"View Royal","term":"Town","latitude":"48.4519440","longitude":"-123.4341670"},{"name":"Village of Daajing Giids","term":"Village","latitude":"53.2547220","longitude":"-132.1025000"},{"name":"Warfield","term":"Village","latitude":"49.0941670","longitude":"-117.7491670"},{"name":"Wells","term":"District Municipality","latitude":"53.1044440","longitude":"-121.5725000"},{"name":"West Vancouver","term":"District Municipality","latitude":"49.3311110","longitude":"-123.1597220"},{"name":"Whistler","term":"Resort Municipality","latitude":"50.1172220","longitude":"-122.9547220"},{"name":"White Rock","term":"City","latitude":"49.0236110","longitude":"-122.7983330"},{"name":"Williams Lake","term":"City","latitude":"52.1291670","longitude":"-122.1400000"},{"name":"Zeballos","term":"Village","latitude":"49.9825000","longitude":"-126.8461110"}]