[{"name":"Altona","term":"Town","latitude":"49.1047220","longitude":"-97.5588890"},{"name":"Arborg","term":"Town","latitude":"50.9072220","longitude":"-97.2169440"},{"name":"Assiniboia","term":"Urban Community","latitude":"49.8588890","longitude":"-97.2597220"},{"name":"Beausejour","term":"Town","latitude":"50.0622220","longitude":"-96.5161110"},{"name":"Benito","term":"Village","latitude":"51.9138890","longitude":"-101.5483300"},{"name":"Binscarth","term":"Village","latitude":"50.6266670","longitude":"-101.2827800"},{"name":"Birtle","term":"Town","latitude":"50.4225000","longitude":"-101.0475000"},{"name":"Boissevain","term":"Town","latitude":"49.2305560","longitude":"-100.0550000"},{"name":"Bowsman","term":"Village","latitude":"52.2358330","longitude":"-101.2072200"},{"name":"Brandon","term":"City","latitude":"49.8469440","longitude":"-99.9522220"},{"name":"Carberry","term":"Town","latitude":"49.8688890","longitude":"-99.3594440"},{"name":"Carman","term":"Town","latitude":"49.4991670","longitude":"-98.0008330"},{"name":"Cartwright","term":"Village","latitude":"49.0955560","longitude":"-99.3400000"},{"name":"Churchill","term":"Town","latitude":"58.7808330","longitude":"-94.1869440"},{"name":"Crystal City","term":"Village","latitude":"49.1463890","longitude":"-98.9488890"},{"name":"Dauphin","term":"City","latitude":"51.1494440","longitude":"-100.0494400"},{"name":"Deloraine","term":"Town","latitude":"49.1908330","longitude":"-100.4938900"},{"name":"Dunnottar","term":"Village","latitude":"50.4538890","longitude":"-96.9472220"},{"name":"East Kildonan - Transcona","term":"Urban Community","latitude":"49.9194440","longitude":"-97.0447220"},{"name":"Elkhorn","term":"Village","latitude":"49.9755560","longitude":"-101.2394400"},{"name":"Emerson","term":"Town","latitude":"49.0069440","longitude":"-97.2147220"},{"name":"Erickson","term":"Town","latitude":"50.4980560","longitude":"-99.9113890"},{"name":"Ethelbert","term":"Village","latitude":"51.5291670","longitude":"-100.3933300"},{"name":"Flin Flon","term":"City","latitude":"54.7680560","longitude":"-101.8641699"},{"name":"Garson","term":"Village","latitude":"50.0777780","longitude":"-96.7066670"},{"name":"Gilbert Plains","term":"Town","latitude":"51.1497220","longitude":"-100.4877780"},{"name":"Gillam","term":"Town","latitude":"56.3472220","longitude":"-94.7077780"},{"name":"Gimli","term":"Town","latitude":"50.6336110","longitude":"-96.9900000"},{"name":"Gladstone","term":"Town","latitude":"50.2258330","longitude":"-98.9500000"},{"name":"Glenboro","term":"Village","latitude":"49.5558330","longitude":"-99.2911110"},{"name":"Grand Rapids","term":"Town","latitude":"53.1783330","longitude":"-99.2647220"},{"name":"Grandview","term":"Town","latitude":"51.1741670","longitude":"-100.6977800"},{"name":"Gretna","term":"Town","latitude":"49.0077780","longitude":"-97.5616670"},{"name":"Hamiota","term":"Town","latitude":"50.1805550","longitude":"-100.5961110"},{"name":"Hartney","term":"Town","latitude":"49.4808330","longitude":"-100.5225000"},{"name":"Killarney","term":"Town","latitude":"49.1833330","longitude":"-99.6627780"},{"name":"Lac du Bonnet","term":"Town","latitude":"50.2536110","longitude":"-96.0605560"},{"name":"Leaf Rapids","term":"Town","latitude":"56.4619444","longitude":"-100.0105556"},{"name":"Lord Selkirk - West Kildonan","term":"Urban Community","latitude":"49.9494440","longitude":"-97.1580560"},{"name":"Lynn Lake","term":"Town","latitude":"56.8250000","longitude":"-101.0750000"},{"name":"MacGregor","term":"Town","latitude":"49.9661110","longitude":"-98.7786110"},{"name":"Manitou","term":"Town","latitude":"49.2405550","longitude":"-98.5366670"},{"name":"McCreary","term":"Village","latitude":"50.7730560","longitude":"-99.4922220"},{"name":"Melita","term":"Town","latitude":"49.2680560","longitude":"-100.9958300"},{"name":"Minitonas","term":"Town","latitude":"52.0861110","longitude":"-101.0391700"},{"name":"Minnedosa","term":"Town","latitude":"50.2452780","longitude":"-99.8427780"},{"name":"Morden","term":"Town","latitude":"49.1919440","longitude":"-98.1005560"},{"name":"Morris","term":"Town","latitude":"49.3550000","longitude":"-97.3650000"},{"name":"Neepawa","term":"Town","latitude":"50.2288890","longitude":"-99.4655560"},{"name":"Niverville","term":"Town","latitude":"49.6055560","longitude":"-97.0416670"},{"name":"Notre-Dame-de-Lourdes","term":"Village","latitude":"49.5330560","longitude":"-98.5577780"},{"name":"Oak Lake","term":"Town","latitude":"49.7663890","longitude":"-100.6280600"},{"name":"Pilot Mound","term":"Town","latitude":"49.2013890","longitude":"-98.8938890"},{"name":"Plum Coulee","term":"Town","latitude":"49.1911110","longitude":"-97.7605560"},{"name":"Portage la Prairie","term":"City","latitude":"49.9727780","longitude":"-98.2919440"},{"name":"Powerview-Pine Falls","term":"Town","latitude":"50.5672220","longitude":"-96.1969440"},{"name":"Rapid City","term":"Town","latitude":"50.1208330","longitude":"-100.0358300"},{"name":"Riel","term":"Urban Community","latitude":"49.8016670","longitude":"-97.0855560"},{"name":"Rivers","term":"Town","latitude":"50.0308330","longitude":"-100.2394400"},{"name":"Riverton","term":"Village","latitude":"50.9983330","longitude":"-96.9961110"},{"name":"Roblin","term":"Town","latitude":"51.2300000","longitude":"-101.3555600"},{"name":"Rossburn","term":"Town","latitude":"50.6691670","longitude":"-100.8111100"},{"name":"Russell","term":"Town","latitude":"50.7808330","longitude":"-101.2838900"},{"name":"Selkirk","term":"City","latitude":"50.1436110","longitude":"-96.8838890"},{"name":"Shoal Lake","term":"Town","latitude":"50.4377780","longitude":"-100.5911100"},{"name":"Snow Lake","term":"Town","latitude":"54.8788890","longitude":"-100.0366700"},{"name":"Somerset","term":"Village","latitude":"49.4122220","longitude":"-98.6605560"},{"name":"Souris","term":"Town","latitude":"49.6172220","longitude":"-100.2602800"},{"name":"St-Lazare","term":"Village","latitude":"50.4488890","longitude":"-101.3041700"},{"name":"St-Pierre-Jolys","term":"Village","latitude":"49.4402780","longitude":"-96.9844440"},{"name":"St. Claude","term":"Village","latitude":"49.6586110","longitude":"-98.3416670"},{"name":"Ste. Anne","term":"Town","latitude":"49.6697219","longitude":"-96.6494439"},{"name":"Ste. Rose du Lac","term":"Town","latitude":"51.0594440","longitude":"-99.5233330"},{"name":"Steinbach","term":"City","latitude":"49.5258330","longitude":"-96.6838890"},{"name":"Stonewall","term":"Town","latitude":"50.1344440","longitude":"-97.3261110"},{"name":"Swan River","term":"Town","latitude":"52.1058330","longitude":"-101.2666700"},{"name":"Teulon","term":"Town","latitude":"50.3858330","longitude":"-97.2611110"},{"name":"The Pas","term":"Town","latitude":"53.8250000","longitude":"-101.2533300"},{"name":"Thompson","term":"City","latitude":"55.7433330","longitude":"-97.8552780"},{"name":"Treherne","term":"Town","latitude":"49.6294440","longitude":"-98.6977780"},{"name":"Virden","term":"Town","latitude":"49.8508330","longitude":"-100.9316700"},{"name":"Waskada","term":"Village","latitude":"49.0966670","longitude":"-100.8019400"},{"name":"Wawanesa","term":"Village","latitude":"49.5950000","longitude":"-99.6838890"},{"name":"Winkler","term":"City","latitude":"49.1816670","longitude":"-97.9402780"},{"name":"Winnipeg","term":"City","latitude":"49.8844440","longitude":"-97.1463890"},{"name":"Winnipeg Beach","term":"Town","latitude":"50.4997220","longitude":"-96.9747220"},{"name":"Winnipegosis","term":"Village","latitude":"51.6486110","longitude":"-99.9258330"}]