[{"name":"Amherst","term":"Town","latitude":"45.8333920","longitude":"-64.2129680"},{"name":"Annapolis Royal","term":"Town","latitude":"44.7437290","longitude":"-65.5189070"},{"name":"Antigonish","term":"Town","latitude":"45.6227650","longitude":"-61.9915810"},{"name":"Aylesford","term":"Village","latitude":"45.0281570","longitude":"-64.8364620"},{"name":"Baddeck","term":"Village","latitude":"46.1001040","longitude":"-60.7537440"},{"name":"Berwick","term":"Town","latitude":"45.0457430","longitude":"-64.7360950"},{"name":"Bible Hill","term":"Village","latitude":"45.3761000","longitude":"-63.2582220"},{"name":"Bridgewater","term":"Town","latitude":"44.3774980","longitude":"-64.5186050"},{"name":"Canning","term":"Village","latitude":"45.1573660","longitude":"-64.4205240"},{"name":"Chester","term":"Village","latitude":"44.5414080","longitude":"-64.2425440"},{"name":"Clark's Harbour","term":"Town","latitude":"43.4426340","longitude":"-65.6290120"},{"name":"Cornwallis Square","term":"Village","latitude":"45.0732680","longitude":"-64.6698890"},{"name":"Digby","term":"Town","latitude":"44.6207950","longitude":"-65.7584420"},{"name":"Dover","term":"Village","latitude":"45.2864510","longitude":"-61.0465510"},{"name":"Freeport","term":"Village","latitude":"44.2798150","longitude":"-66.3216970"},{"name":"Greenwood","term":"Village","latitude":"44.9689230","longitude":"-64.9386310"},{"name":"Hebbville","term":"Village","latitude":"44.3573910","longitude":"-64.5384690"},{"name":"Kentville","term":"Town","latitude":"45.0777070","longitude":"-64.4953060"},{"name":"Kingston","term":"Village","latitude":"44.9871410","longitude":"-64.9499710"},{"name":"Lawrencetown","term":"Village","latitude":"44.8821970","longitude":"-65.1586680"},{"name":"Lockeport","term":"Town","latitude":"43.6987330","longitude":"-65.1133220"},{"name":"Lunenburg","term":"Town","latitude":"44.3778960","longitude":"-64.3095290"},{"name":"Mahone Bay","term":"Town","latitude":"44.4467070","longitude":"-64.3779890"},{"name":"Middleton","term":"Town","latitude":"44.9425770","longitude":"-65.0681930"},{"name":"Mulgrave","term":"Town","latitude":"45.6121560","longitude":"-61.3917250"},{"name":"New Glasgow","term":"Town","latitude":"45.5893320","longitude":"-62.6447900"},{"name":"New Minas","term":"Village","latitude":"45.0678580","longitude":"-64.4602340"},{"name":"Oxford","term":"Town","latitude":"45.7363220","longitude":"-63.8672920"},{"name":"Pictou","term":"Town","latitude":"45.6760170","longitude":"-62.7088610"},{"name":"Port Hawkesbury","term":"Town","latitude":"45.6164620","longitude":"-61.3562620"},{"name":"Port Williams","term":"Village","latitude":"45.0979690","longitude":"-64.4099900"},{"name":"Pugwash","term":"Village","latitude":"45.8500920","longitude":"-63.6603030"},{"name":"River Hebert","term":"Village","latitude":"45.6902800","longitude":"-64.3780370"},{"name":"Shelburne","term":"Town","latitude":"43.7632150","longitude":"-65.3235070"},{"name":"St. Peter's","term":"Village","latitude":"45.6562000","longitude":"-60.8751660"},{"name":"Stellarton","term":"Town","latitude":"45.5593730","longitude":"-62.6598560"},{"name":"Stewiacke","term":"Town","latitude":"45.1385170","longitude":"-63.3460970"},{"name":"Tatamagouche","term":"Village","latitude":"45.7121400","longitude":"-63.2910920"},{"name":"Tiverton","term":"Village","latitude":"44.3914782","longitude":"-66.2127923"},{"name":"Trenton","term":"Town","latitude":"45.6105200","longitude":"-62.6393710"},{"name":"Truro","term":"Town","latitude":"45.3649590","longitude":"-63.2798470"},{"name":"Westport","term":"Village","latitude":"44.2639230","longitude":"-66.3501020"},{"name":"Westville","term":"Town","latitude":"45.5563200","longitude":"-62.7153960"},{"name":"Weymouth","term":"Village","latitude":"44.4114670","longitude":"-65.9957550"},{"name":"Wolfville","term":"Town","latitude":"45.0917130","longitude":"-64.3592420"},{"name":"Yarmouth","term":"Town","latitude":"43.8386540","longitude":"-66.1152230"}]