[{"name":"Abercorn","term":"Village Municipality","latitude":"45.0333334","longitude":"-72.6666667"},{"name":"Acton Vale","term":"Town","latitude":"45.6478600","longitude":"-72.5647860"},{"name":"Adstock","term":"Municipality","latitude":"46.0474660","longitude":"-71.0776100"},{"name":"Aguanish","term":"Municipality","latitude":"50.2218320","longitude":"-62.0806790"},{"name":"Ahuntsic-Cartierville","term":"Borough","latitude":"45.5500000","longitude":"-73.6666670"},{"name":"Akulivik","term":"Northern Village Municipality","latitude":"60.8098020","longitude":"-78.1877300"},{"name":"Albanel","term":"Municipality","latitude":"48.8830680","longitude":"-72.4416770"},{"name":"Albertville","term":"Municipality","latitude":"48.3261020","longitude":"-67.3584880"},{"name":"Alleyn-et-Cawood","term":"Municipality","latitude":"45.9250070","longitude":"-76.1584130"},{"name":"Alma","term":"Town","latitude":"48.5497020","longitude":"-71.6534250"},{"name":"Amherst","term":"Township Municipality","latitude":"46.0500000","longitude":"-74.7666667"},{"name":"Amos","term":"Town","latitude":"48.5647660","longitude":"-78.1127500"},{"name":"Amqui","term":"Town","latitude":"48.4623750","longitude":"-67.4332320"},{"name":"Ange-Gardien","term":"Municipality","latitude":"45.3551520","longitude":"-72.9346270"},{"name":"Anjou","term":"Borough","latitude":"45.6055556","longitude":"-73.5541667"},{"name":"Armagh","term":"Municipality","latitude":"46.7428440","longitude":"-70.5882050"},{"name":"Arundel","term":"Township Municipality","latitude":"45.9666667","longitude":"-74.6166667"},{"name":"Ascot Corner","term":"Municipality","latitude":"45.4484270","longitude":"-71.7668570"},{"name":"Aston-Jonction","term":"Municipality","latitude":"46.1694020","longitude":"-72.2291990"},{"name":"Auclair","term":"Municipality","latitude":"47.7287040","longitude":"-68.6441770"},{"name":"Audet","term":"Municipality","latitude":"45.6571360","longitude":"-70.7341600"},{"name":"Aumond","term":"Township Municipality","latitude":"46.4666670","longitude":"-75.9000000"},{"name":"Aupaluk","term":"Northern Village Municipality","latitude":"59.3000000","longitude":"-69.6000000"},{"name":"Austin","term":"Municipality","latitude":"45.1865600","longitude":"-72.2801660"},{"name":"Authier","term":"Municipality","latitude":"48.7294570","longitude":"-78.8573690"},{"name":"Authier-Nord","term":"Municipality","latitude":"48.8386330","longitude":"-78.8617190"},{"name":"Ayer's Cliff","term":"Village Municipality","latitude":"45.1666666","longitude":"-72.0500000"},{"name":"Baie-Comeau","term":"Town","latitude":"49.2209270","longitude":"-68.1493050"},{"name":"Baie-D'Urfé","term":"Town","latitude":"45.4084050","longitude":"-73.9153770"},{"name":"Baie-Johan-Beetz","term":"Municipality","latitude":"50.2892990","longitude":"-62.8037300"},{"name":"Baie-Saint-Paul","term":"Town","latitude":"47.4406490","longitude":"-70.5094610"},{"name":"Baie-Sainte-Catherine","term":"Municipality","latitude":"48.1034580","longitude":"-69.7262570"},{"name":"Baie-Trinité","term":"Village Municipality","latitude":"49.4166666","longitude":"-67.3000000"},{"name":"Baie-des-Sables","term":"Municipality","latitude":"48.7210790","longitude":"-67.8937960"},{"name":"Baie-du-Febvre","term":"Municipality","latitude":"46.1376240","longitude":"-72.7215990"},{"name":"Barkmere","term":"Town","latitude":"46.0025690","longitude":"-74.5732460"},{"name":"Barnston-Ouest","term":"Municipality","latitude":"45.1024970","longitude":"-71.9759960"},{"name":"Barraute","term":"Municipality","latitude":"48.4384130","longitude":"-77.6367710"},{"name":"Batiscan","term":"Municipality","latitude":"46.4882520","longitude":"-72.2567720"},{"name":"Beaconsfield","term":"Town","latitude":"45.4241600","longitude":"-73.8663910"},{"name":"Beauceville","term":"Town","latitude":"46.2146550","longitude":"-70.7759430"},{"name":"Beauharnois","term":"Town","latitude":"45.3132160","longitude":"-73.8779520"},{"name":"Beaulac-Garthby","term":"Municipality","latitude":"45.8387800","longitude":"-71.3786410"},{"name":"Beaumont","term":"Municipality","latitude":"46.8304350","longitude":"-71.0102470"},{"name":"Beauport","term":"Borough","latitude":"46.8666670","longitude":"-71.1833330"},{"name":"Beaupré","term":"Town","latitude":"47.0416960","longitude":"-70.8993410"},{"name":"Bedford","term":"Town","latitude":"45.1209240","longitude":"-72.9876210"},{"name":"Bedford","term":"Township Municipality","latitude":"45.1333333","longitude":"-72.9666666"},{"name":"Belcourt","term":"Municipality","latitude":"48.4008270","longitude":"-77.3541630"},{"name":"Belleterre","term":"Town","latitude":"47.3892520","longitude":"-78.7036250"},{"name":"Belœil","term":"Town","latitude":"45.5670540","longitude":"-73.2025080"},{"name":"Berry","term":"Municipality","latitude":"48.7192100","longitude":"-78.2539750"},{"name":"Berthier-sur-Mer","term":"Municipality","latitude":"46.9256930","longitude":"-70.7326790"},{"name":"Berthierville","term":"Town","latitude":"46.0838990","longitude":"-73.1756880"},{"name":"Biencourt","term":"Municipality","latitude":"47.9374300","longitude":"-68.6072720"},{"name":"Blainville","term":"Town","latitude":"45.6796270","longitude":"-73.8738740"},{"name":"Blanc-Sablon","term":"Municipality","latitude":"51.4175710","longitude":"-57.1854440"},{"name":"Blue Sea","term":"Municipality","latitude":"46.1824520","longitude":"-76.0596750"},{"name":"Boileau","term":"Municipality","latitude":"45.9007440","longitude":"-74.7754130"},{"name":"Bois-Franc","term":"Municipality","latitude":"46.5026300","longitude":"-75.9815350"},{"name":"Bois-des-Filion","term":"Town","latitude":"45.6696770","longitude":"-73.7552580"},{"name":"Boisbriand","term":"Town","latitude":"45.6127160","longitude":"-73.8384240"},{"name":"Boischatel","term":"Municipality","latitude":"46.8972240","longitude":"-71.1397300"},{"name":"Bolton-Est","term":"Municipality","latitude":"45.2028690","longitude":"-72.3562830"},{"name":"Bolton-Ouest","term":"Municipality","latitude":"45.2433740","longitude":"-72.4616880"},{"name":"Bonaventure","term":"Town","latitude":"48.0489460","longitude":"-65.4911910"},{"name":"Bonne-Espérance","term":"Municipality","latitude":"51.4721460","longitude":"-57.7082440"},{"name":"Bonsecours","term":"Municipality","latitude":"45.4059130","longitude":"-72.3039860"},{"name":"Boucherville","term":"Town","latitude":"45.6044000","longitude":"-73.4523360"},{"name":"Bouchette","term":"Municipality","latitude":"46.2027860","longitude":"-75.9572970"},{"name":"Bowman","term":"Municipality","latitude":"45.8806790","longitude":"-75.6343960"},{"name":"Brigham","term":"Municipality","latitude":"45.2484300","longitude":"-72.8456550"},{"name":"Bristol","term":"Municipality","latitude":"45.5319930","longitude":"-76.3745130"},{"name":"Brome","term":"Village Municipality","latitude":"45.2000000","longitude":"-72.5666666"},{"name":"Bromont","term":"Town","latitude":"45.3190740","longitude":"-72.6459100"},{"name":"Brompton–Rock Forest–Saint-Élie–Deauville","term":"Borough","latitude":"45.3708320","longitude":"-72.0416660"},{"name":"Brossard","term":"Town","latitude":"45.4552630","longitude":"-73.4677930"},{"name":"Brownsburg-Chatham","term":"Town","latitude":"45.6763100","longitude":"-74.4081250"},{"name":"Bryson","term":"Municipality","latitude":"45.6779520","longitude":"-76.6226960"},{"name":"Brébeuf","term":"Municipality","latitude":"46.0745540","longitude":"-74.6720540"},{"name":"Bury","term":"Municipality","latitude":"45.4733210","longitude":"-71.5007270"},{"name":"Béarn","term":"Municipality","latitude":"47.2930130","longitude":"-79.3276520"},{"name":"Bécancour","term":"Town","latitude":"46.3480800","longitude":"-72.4345460"},{"name":"Bégin","term":"Municipality","latitude":"48.6756210","longitude":"-71.3599130"},{"name":"Béthanie","term":"Municipality","latitude":"45.5014610","longitude":"-72.4373910"},{"name":"Cacouna","term":"Municipality","latitude":"47.9163940","longitude":"-69.4996660"},{"name":"Calixa-Lavallée","term":"Municipality","latitude":"45.7462050","longitude":"-73.2809990"},{"name":"Calumet","term":"Borough","latitude":"45.6513889","longitude":"-74.6361111"},{"name":"Campbell's Bay","term":"Municipality","latitude":"45.7330680","longitude":"-76.5959300"},{"name":"Candiac","term":"Town","latitude":"45.3948490","longitude":"-73.5191490"},{"name":"Cantley","term":"Municipality","latitude":"45.5510190","longitude":"-75.7833830"},{"name":"Cap-Chat","term":"Town","latitude":"49.0963490","longitude":"-66.6877210"},{"name":"Cap-Saint-Ignace","term":"Municipality","latitude":"47.0374990","longitude":"-70.4568330"},{"name":"Cap-Santé","term":"Town","latitude":"46.6700740","longitude":"-71.7704630"},{"name":"Caplan","term":"Municipality","latitude":"48.1017830","longitude":"-65.6792430"},{"name":"Carignan","term":"Town","latitude":"45.4657410","longitude":"-73.3303070"},{"name":"Carleton-sur-Mer","term":"Town","latitude":"48.1017360","longitude":"-66.1219930"},{"name":"Cascapédia–Saint-Jules","term":"Municipality","latitude":"48.2541130","longitude":"-65.9236600"},{"name":"Causapscal","term":"Town","latitude":"48.3549410","longitude":"-67.2212990"},{"name":"Cayamant","term":"Municipality","latitude":"46.1354990","longitude":"-76.2454660"},{"name":"Chambly","term":"Town","latitude":"45.4490740","longitude":"-73.2916940"},{"name":"Chambord","term":"Municipality","latitude":"48.4298770","longitude":"-72.0625050"},{"name":"Champlain","term":"Municipality","latitude":"46.4371130","longitude":"-72.3543720"},{"name":"Champneuf","term":"Municipality","latitude":"48.5897520","longitude":"-77.4992800"},{"name":"Chandler","term":"Town","latitude":"48.3487410","longitude":"-64.6783990"},{"name":"Chapais","term":"Town","latitude":"49.7817130","longitude":"-74.8534580"},{"name":"Charette","term":"Municipality","latitude":"46.4446490","longitude":"-72.9209570"},{"name":"Charlemagne","term":"Town","latitude":"45.7212990","longitude":"-73.4868210"},{"name":"Charlesbourg","term":"Borough","latitude":"46.8583333","longitude":"-71.2666667"},{"name":"Chartierville","term":"Municipality","latitude":"45.2980600","longitude":"-71.2041130"},{"name":"Chazel","term":"Municipality","latitude":"48.8643660","longitude":"-79.0549380"},{"name":"Chelsea","term":"Municipality","latitude":"45.5039970","longitude":"-75.7958800"},{"name":"Chertsey","term":"Municipality","latitude":"46.0746910","longitude":"-73.8900880"},{"name":"Chesterville","term":"Municipality","latitude":"45.9618860","longitude":"-71.8229410"},{"name":"Chibougamau","term":"Town","latitude":"49.9132270","longitude":"-74.3685320"},{"name":"Chichester","term":"Township Municipality","latitude":"45.9166667","longitude":"-77.1166667"},{"name":"Chicoutimi","term":"Borough","latitude":"48.4166670","longitude":"-71.0666670"},{"name":"Chisasibi","term":"Cree Village Municipality","latitude":"53.6666666","longitude":"-78.3333333"},{"name":"Chute-Saint-Philippe","term":"Municipality","latitude":"46.6497410","longitude":"-75.2451270"},{"name":"Chute-aux-Outardes","term":"Village Municipality","latitude":"49.1166667","longitude":"-68.4000000"},{"name":"Château-Richer","term":"Town","latitude":"46.9695520","longitude":"-71.0177490"},{"name":"Châteauguay","term":"Town","latitude":"45.3609270","longitude":"-73.7501800"},{"name":"Chénéville","term":"Municipality","latitude":"45.8837880","longitude":"-75.0547360"},{"name":"Clarenceville","term":"Municipality","latitude":"45.0666670","longitude":"-73.2500000"},{"name":"Clarendon","term":"Municipality","latitude":"45.5983830","longitude":"-76.4914050"},{"name":"Clermont","term":"Township Municipality","latitude":"48.9166667","longitude":"-79.1666667"},{"name":"Clermont","term":"Town","latitude":"47.6943580","longitude":"-70.2255490"},{"name":"Clerval","term":"Municipality","latitude":"48.7491350","longitude":"-79.4378800"},{"name":"Cleveland","term":"Township Municipality","latitude":"45.6666667","longitude":"-72.0833333"},{"name":"Cloridorme","term":"Township Municipality","latitude":"49.1833330","longitude":"-64.8333330"},{"name":"Coaticook","term":"Town","latitude":"45.1344660","longitude":"-71.8048000"},{"name":"Colombier","term":"Municipality","latitude":"48.8720540","longitude":"-68.8470940"},{"name":"Compton","term":"Municipality","latitude":"45.2422770","longitude":"-71.8273930"},{"name":"Contrecœur","term":"Town","latitude":"45.8572610","longitude":"-73.2390740"},{"name":"Cookshire-Eaton","term":"Town","latitude":"45.4129860","longitude":"-71.6261240"},{"name":"Coteau-du-Lac","term":"Town","latitude":"45.2911270","longitude":"-74.1739570"},{"name":"Courcelles–Saint-Évariste","term":"Municipality","latitude":"45.8738880","longitude":"-70.9830540"},{"name":"Cowansville","term":"Town","latitude":"45.2047000","longitude":"-72.7408600"},{"name":"Crabtree","term":"Town","latitude":"45.9632050","longitude":"-73.4730770"},{"name":"Côte-Nord-du-Golfe-du-Saint-Laurent","term":"Municipality","latitude":"50.4673740","longitude":"-59.6174100"},{"name":"Côte-Saint-Luc","term":"Town","latitude":"45.4776070","longitude":"-73.6634880"},{"name":"Côte-des-Neiges–Notre-Dame-de-Grâce","term":"Borough","latitude":"45.4986111","longitude":"-73.6263889"},{"name":"Danville","term":"Town","latitude":"45.7822130","longitude":"-72.0085000"},{"name":"Daveluyville","term":"Town","latitude":"46.2057250","longitude":"-72.1381160"},{"name":"Delson","term":"Town","latitude":"45.3755910","longitude":"-73.5417910"},{"name":"Denholm","term":"Municipality","latitude":"45.8125910","longitude":"-75.7615750"},{"name":"Desbiens","term":"Town","latitude":"48.4181490","longitude":"-71.9502690"},{"name":"Deschaillons-sur-Saint-Laurent","term":"Municipality","latitude":"46.5514220","longitude":"-72.1253820"},{"name":"Deschambault-Grondines","term":"Municipality","latitude":"46.6483380","longitude":"-71.9273410"},{"name":"Desjardins","term":"Borough","latitude":"46.8000000","longitude":"-71.1833333"},{"name":"Deux-Montagnes","term":"Town","latitude":"45.5418300","longitude":"-73.8929300"},{"name":"Disraeli","term":"Town","latitude":"45.9028250","longitude":"-71.3579720"},{"name":"Disraeli","term":"Parish Municipality","latitude":"45.9238660","longitude":"-71.3721710"},{"name":"Dixville","term":"Municipality","latitude":"45.0674100","longitude":"-71.7697600"},{"name":"Dolbeau-Mistassini","term":"Town","latitude":"48.8765100","longitude":"-72.2259570"},{"name":"Dollard-des-Ormeaux","term":"Town","latitude":"45.4842520","longitude":"-73.8077380"},{"name":"Donnacona","term":"Town","latitude":"46.6726850","longitude":"-71.7372210"},{"name":"Dorval","term":"Town","latitude":"45.4392630","longitude":"-73.7304350"},{"name":"Dosquet","term":"Municipality","latitude":"46.4678040","longitude":"-71.5295460"},{"name":"Drummondville","term":"Town","latitude":"45.8805770","longitude":"-72.4840580"},{"name":"Dudswell","term":"Municipality","latitude":"45.5804270","longitude":"-71.5714790"},{"name":"Duhamel","term":"Municipality","latitude":"46.0243350","longitude":"-75.0789160"},{"name":"Duhamel-Ouest","term":"Municipality","latitude":"47.3137660","longitude":"-79.4375460"},{"name":"Dundee","term":"Township Municipality","latitude":"45.0000000","longitude":"-74.5000000"},{"name":"Dunham","term":"Town","latitude":"45.1310290","longitude":"-72.8004720"},{"name":"Duparquet","term":"Town","latitude":"48.5055000","longitude":"-79.2291290"},{"name":"Dupuy","term":"Municipality","latitude":"48.8289210","longitude":"-79.3579110"},{"name":"Durham-Sud","term":"Municipality","latitude":"45.6618410","longitude":"-72.3458240"},{"name":"Dégelis","term":"Town","latitude":"47.5479910","longitude":"-68.6471740"},{"name":"Déléage","term":"Municipality","latitude":"46.3835600","longitude":"-75.9300350"},{"name":"East Angus","term":"Town","latitude":"45.4842830","longitude":"-71.6593660"},{"name":"East Broughton","term":"Municipality","latitude":"46.2261680","longitude":"-71.0778680"},{"name":"East Farnham","term":"Municipality","latitude":"45.2426210","longitude":"-72.7735180"},{"name":"East Hereford","term":"Municipality","latitude":"45.0762350","longitude":"-71.5026500"},{"name":"Eastmain","term":"Cree Village Municipality","latitude":"52.1833333","longitude":"-78.1666667"},{"name":"Eastman","term":"Municipality","latitude":"45.3132860","longitude":"-72.3045970"},{"name":"Eeyou Istchee Baie-James","term":"Municipality","latitude":"49.7565830","longitude":"-77.6302820"},{"name":"Egan-Sud","term":"Municipality","latitude":"46.4096770","longitude":"-75.9820070"},{"name":"Elgin","term":"Municipality","latitude":"45.0166670","longitude":"-74.2666670"},{"name":"Entrelacs","term":"Municipality","latitude":"46.1093660","longitude":"-74.0028880"},{"name":"Escuminac","term":"Municipality","latitude":"48.0793740","longitude":"-66.5400210"},{"name":"Esprit-Saint","term":"Municipality","latitude":"48.0664000","longitude":"-68.5641360"},{"name":"Estérel","term":"Town","latitude":"46.0409410","longitude":"-74.0150330"},{"name":"Farnham","term":"Town","latitude":"45.2836630","longitude":"-72.9769100"},{"name":"Fassett","term":"Municipality","latitude":"45.6458490","longitude":"-74.8694850"},{"name":"Ferland-et-Boilleau","term":"Municipality","latitude":"48.1818040","longitude":"-70.8457960"},{"name":"Ferme-Neuve","term":"Municipality","latitude":"46.7006160","longitude":"-75.4532130"},{"name":"Fermont","term":"Town","latitude":"52.7969330","longitude":"-67.0910080"},{"name":"Fleurimont","term":"Borough","latitude":"45.4083333","longitude":"-71.8388889"},{"name":"Forestville","term":"Town","latitude":"48.7384850","longitude":"-69.0767740"},{"name":"Fort-Coulonge","term":"Village Municipality","latitude":"45.8500000","longitude":"-76.7333333"},{"name":"Fortierville","term":"Municipality","latitude":"46.4859660","longitude":"-72.0324910"},{"name":"Fossambault-sur-le-Lac","term":"Town","latitude":"46.8682570","longitude":"-71.6201910"},{"name":"Frampton","term":"Municipality","latitude":"46.4634160","longitude":"-70.8074080"},{"name":"Franklin","term":"Municipality","latitude":"45.0290600","longitude":"-73.9249930"},{"name":"Franquelin","term":"Municipality","latitude":"49.2934440","longitude":"-67.8917190"},{"name":"Frelighsburg","term":"Municipality","latitude":"45.0559440","longitude":"-72.8377800"},{"name":"Frontenac","term":"Municipality","latitude":"45.5721430","longitude":"-70.8303130"},{"name":"Fugèreville","term":"Municipality","latitude":"47.3971050","longitude":"-79.2000660"},{"name":"Gallichan","term":"Municipality","latitude":"48.6028690","longitude":"-79.2855660"},{"name":"Gaspé","term":"Town","latitude":"48.8246180","longitude":"-64.4762540"},{"name":"Gatineau","term":"Town","latitude":"45.4279290","longitude":"-75.7109380"},{"name":"Girardville","term":"Municipality","latitude":"49.0027110","longitude":"-72.5469190"},{"name":"Godbout","term":"Village Municipality","latitude":"49.3166667","longitude":"-67.6000000"},{"name":"Godmanchester","term":"Township Municipality","latitude":"45.0833333","longitude":"-74.2500000"},{"name":"Gore","term":"Township Municipality","latitude":"45.7666667","longitude":"-74.2500000"},{"name":"Gracefield","term":"Town","latitude":"46.0817710","longitude":"-76.0597720"},{"name":"Granby","term":"Town","latitude":"45.3985550","longitude":"-72.7222490"},{"name":"Grand-Métis","term":"Municipality","latitude":"48.6157110","longitude":"-68.1083860"},{"name":"Grand-Remous","term":"Municipality","latitude":"46.6077580","longitude":"-75.9022660"},{"name":"Grand-Saint-Esprit","term":"Municipality","latitude":"46.1813770","longitude":"-72.4970410"},{"name":"Grande-Rivière","term":"Town","latitude":"48.4001500","longitude":"-64.4966550"},{"name":"Grande-Vallée","term":"Municipality","latitude":"49.2260570","longitude":"-65.1249930"},{"name":"Grandes-Piles","term":"Village Municipality","latitude":"46.6833333","longitude":"-72.7333333"},{"name":"Greenfield Park","term":"Borough","latitude":"45.4827780","longitude":"-73.4733330"},{"name":"Grenville","term":"Borough","latitude":"45.7166670","longitude":"-74.6666670"},{"name":"Grenville","term":"Village Municipality","latitude":"45.6333333","longitude":"-74.6000000"},{"name":"Grenville-sur-la-Rouge","term":"Municipality","latitude":"45.6515130","longitude":"-74.6320130"},{"name":"Gros-Mécatina","term":"Municipality","latitude":"50.8293930","longitude":"-58.9599160"},{"name":"Grosse-Île","term":"Municipality","latitude":"47.6186520","longitude":"-61.5166960"},{"name":"Grosses-Roches","term":"Municipality","latitude":"48.9402550","longitude":"-67.1725210"},{"name":"Guérin","term":"Township Municipality","latitude":"47.6500000","longitude":"-79.3166670"},{"name":"Ham-Nord","term":"Township Municipality","latitude":"45.9000000","longitude":"-71.6500000"},{"name":"Ham-Sud","term":"Municipality","latitude":"45.7560130","longitude":"-71.6012580"},{"name":"Hampden","term":"Township Municipality","latitude":"45.5000000","longitude":"-71.2500000"},{"name":"Hampstead","term":"Town","latitude":"45.4786710","longitude":"-73.6339350"},{"name":"Harrington","term":"Township Municipality","latitude":"45.8333333","longitude":"-74.6666666"},{"name":"Hatley","term":"Township Municipality","latitude":"45.2666667","longitude":"-71.9500000"},{"name":"Hatley","term":"Municipality","latitude":"45.1801660","longitude":"-71.9906460"},{"name":"Havelock","term":"Township Municipality","latitude":"45.0500000","longitude":"-73.7500000"},{"name":"Havre-Saint-Pierre","term":"Municipality","latitude":"50.2450210","longitude":"-63.5972800"},{"name":"Hemmingford","term":"Village Municipality","latitude":"45.0500000","longitude":"-73.5833333"},{"name":"Hemmingford","term":"Township Municipality","latitude":"45.0833333","longitude":"-73.5833333"},{"name":"Henryville","term":"Municipality","latitude":"45.1368130","longitude":"-73.1923990"},{"name":"Hinchinbrooke","term":"Municipality","latitude":"45.0266070","longitude":"-74.0944100"},{"name":"Honfleur","term":"Municipality","latitude":"46.6558910","longitude":"-70.8806930"},{"name":"Hope","term":"Township Municipality","latitude":"48.0500000","longitude":"-65.2000000"},{"name":"Hope Town","term":"Municipality","latitude":"48.0501160","longitude":"-65.1585770"},{"name":"Howick","term":"Municipality","latitude":"45.1865910","longitude":"-73.8492960"},{"name":"Huberdeau","term":"Municipality","latitude":"45.9750880","longitude":"-74.6345550"},{"name":"Hudson","term":"Town","latitude":"45.4587080","longitude":"-74.1431050"},{"name":"Huntingdon","term":"Town","latitude":"45.0873800","longitude":"-74.1753020"},{"name":"Hébertville","term":"Municipality","latitude":"48.3947440","longitude":"-71.6777210"},{"name":"Hébertville-Station","term":"Village Municipality","latitude":"48.4500000","longitude":"-71.6666667"},{"name":"Hérouxville","term":"Parish Municipality","latitude":"46.6736460","longitude":"-72.6137580"},{"name":"Inukjuak","term":"Northern Village Municipality","latitude":"58.4506110","longitude":"-78.1094770"},{"name":"Inverness","term":"Municipality","latitude":"46.2605940","longitude":"-71.5225850"},{"name":"Irlande","term":"Municipality","latitude":"46.0855520","longitude":"-71.5317600"},{"name":"Ivry-sur-le-Lac","term":"Municipality","latitude":"46.0754210","longitude":"-74.3373740"},{"name":"Ivujivik","term":"Northern Village Municipality","latitude":"62.4166667","longitude":"-77.9166667"},{"name":"Joliette","term":"Town","latitude":"46.0235410","longitude":"-73.4426660"},{"name":"Jonquière","term":"Borough","latitude":"48.4166670","longitude":"-71.2458330"},{"name":"Kamouraska","term":"Municipality","latitude":"47.5661800","longitude":"-69.8679100"},{"name":"Kangiqsualujjuaq","term":"Northern Village Municipality","latitude":"58.6953160","longitude":"-65.9563000"},{"name":"Kangiqsujuaq","term":"Northern Village Municipality","latitude":"61.5980630","longitude":"-71.9536800"},{"name":"Kangirsuk","term":"Northern Village Municipality","latitude":"60.0185100","longitude":"-70.0270180"},{"name":"Kawawachikamach","term":"Naskapi Village Municipality","latitude":"55.1666666","longitude":"-66.8666667"},{"name":"Kazabazua","term":"Municipality","latitude":"45.9504330","longitude":"-76.0141110"},{"name":"Kiamika","term":"Municipality","latitude":"46.4181520","longitude":"-75.3812270"},{"name":"Kingsbury","term":"Village Municipality","latitude":"45.5833333","longitude":"-72.1500000"},{"name":"Kingsey Falls","term":"Town","latitude":"45.8580690","longitude":"-72.0724040"},{"name":"Kinnear's Mills","term":"Municipality","latitude":"46.2237270","longitude":"-71.3822070"},{"name":"Kipawa","term":"Municipality","latitude":"46.7488410","longitude":"-79.0514520"},{"name":"Kirkland","term":"Town","latitude":"45.4484350","longitude":"-73.8588880"},{"name":"Kuujjuaq","term":"Northern Village Municipality","latitude":"58.1075160","longitude":"-68.3995630"},{"name":"Kuujjuarapik","term":"Northern Village Municipality","latitude":"55.2833333","longitude":"-77.7500000"},{"name":"L'Ancienne-Lorette","term":"Town","latitude":"46.7987300","longitude":"-71.3625500"},{"name":"L'Ange-Gardien","term":"Municipality","latitude":"45.6085630","longitude":"-75.3959690"},{"name":"L'Ange-Gardien","term":"Municipality","latitude":"46.9160160","longitude":"-71.0944350"},{"name":"L'Anse-Saint-Jean","term":"Municipality","latitude":"48.2336490","longitude":"-70.2062770"},{"name":"L'Ascension","term":"Municipality","latitude":"46.5521830","longitude":"-74.8292790"},{"name":"L'Ascension-de-Notre-Seigneur","term":"Parish Municipality","latitude":"48.6916940","longitude":"-71.6702740"},{"name":"L'Ascension-de-Patapédia","term":"Municipality","latitude":"47.9326130","longitude":"-67.2500410"},{"name":"L'Assomption","term":"Town","latitude":"45.8110880","longitude":"-73.4313600"},{"name":"L'Avenir","term":"Municipality","latitude":"45.7653910","longitude":"-72.3120940"},{"name":"L'Isle-Verte","term":"Municipality","latitude":"48.0148940","longitude":"-69.3354690"},{"name":"L'Isle-aux-Allumettes","term":"Municipality","latitude":"45.9102770","longitude":"-77.0729540"},{"name":"L'Isle-aux-Coudres","term":"Municipality","latitude":"47.4199320","longitude":"-70.3849300"},{"name":"L'Islet","term":"Municipality","latitude":"47.1038110","longitude":"-70.3513000"},{"name":"L'Épiphanie","term":"Town","latitude":"45.8505080","longitude":"-73.4825180"},{"name":"L'Île-Bizard–Sainte-Geneviève","term":"Borough","latitude":"45.4833330","longitude":"-73.8666670"},{"name":"L'Île-Cadieux","term":"Town","latitude":"45.4296070","longitude":"-74.0267320"},{"name":"L'Île-Dorval","term":"Town","latitude":"45.4329210","longitude":"-73.7435440"},{"name":"L'Île-Perrot","term":"Town","latitude":"45.3934050","longitude":"-73.9550860"},{"name":"L'Île-d'Anticosti","term":"Municipality","latitude":"49.8190430","longitude":"-64.3481660"},{"name":"L'Île-du-Grand-Calumet","term":"Municipality","latitude":"45.7188880","longitude":"-76.6115440"},{"name":"La Baie","term":"Borough","latitude":"48.3333330","longitude":"-70.8791670"},{"name":"La Bostonnais","term":"Municipality","latitude":"47.5213240","longitude":"-72.6830380"},{"name":"La Cité-Limoilou","term":"Borough","latitude":"46.8250000","longitude":"-71.2333330"},{"name":"La Conception","term":"Municipality","latitude":"46.1533330","longitude":"-74.6944270"},{"name":"La Corne","term":"Municipality","latitude":"48.3574190","longitude":"-77.9963130"},{"name":"La Doré","term":"Parish Municipality","latitude":"48.7131750","longitude":"-72.6495770"},{"name":"La Durantaye","term":"Parish Municipality","latitude":"46.8357270","longitude":"-70.8553610"},{"name":"La Guadeloupe","term":"Village Municipality","latitude":"45.9500000","longitude":"-70.9333334"},{"name":"La Haute-Saint-Charles","term":"Borough","latitude":"46.8902778","longitude":"-71.3722222"},{"name":"La Macaza","term":"Municipality","latitude":"46.3708990","longitude":"-74.7725100"},{"name":"La Malbaie","term":"Town","latitude":"47.6524190","longitude":"-70.1495100"},{"name":"La Martre","term":"Municipality","latitude":"49.2055360","longitude":"-66.1705990"},{"name":"La Minerve","term":"Municipality","latitude":"46.2558360","longitude":"-74.9366300"},{"name":"La Morandière-Rochebaucourt","term":"Municipality","latitude":"48.6161630","longitude":"-77.6427050"},{"name":"La Motte","term":"Municipality","latitude":"48.3280380","longitude":"-78.1103110"},{"name":"La Patrie","term":"Municipality","latitude":"45.4034110","longitude":"-71.2516880"},{"name":"La Pocatière","term":"Town","latitude":"47.3699740","longitude":"-70.0324350"},{"name":"La Prairie","term":"Town","latitude":"45.4176350","longitude":"-73.4891960"},{"name":"La Présentation","term":"Municipality","latitude":"45.6656690","longitude":"-73.0506830"},{"name":"La Pêche","term":"Municipality","latitude":"45.6419160","longitude":"-76.0373380"},{"name":"La Reine","term":"Municipality","latitude":"48.8680040","longitude":"-79.5055470"},{"name":"La Rédemption","term":"Parish Municipality","latitude":"48.4442130","longitude":"-67.8775320"},{"name":"La Sarre","term":"Town","latitude":"48.8068160","longitude":"-79.2047610"},{"name":"La Trinité-des-Monts","term":"Parish Municipality","latitude":"48.1271660","longitude":"-68.4748320"},{"name":"La Tuque","term":"Town","latitude":"47.4407800","longitude":"-72.7814660"},{"name":"La Visitation-de-Yamaska","term":"Municipality","latitude":"46.1301040","longitude":"-72.6036270"},{"name":"La Visitation-de-l'Île-Dupas","term":"Municipality","latitude":"46.0861111","longitude":"-73.1427778"},{"name":"LaSalle","term":"Borough","latitude":"45.4305556","longitude":"-73.6250000"},{"name":"Labelle","term":"Municipality","latitude":"46.2796520","longitude":"-74.7351800"},{"name":"Labrecque","term":"Municipality","latitude":"48.6747210","longitude":"-71.5246790"},{"name":"Lac-Beauport","term":"Municipality","latitude":"46.9459850","longitude":"-71.2873410"},{"name":"Lac-Bouchette","term":"Municipality","latitude":"48.2555630","longitude":"-72.1863330"},{"name":"Lac-Brome","term":"Town","latitude":"45.2190540","longitude":"-72.5087940"},{"name":"Lac-Delage","term":"Town","latitude":"46.9708990","longitude":"-71.4038130"},{"name":"Lac-Drolet","term":"Municipality","latitude":"45.7182460","longitude":"-70.8495550"},{"name":"Lac-Etchemin","term":"Municipality","latitude":"46.3963600","longitude":"-70.5044610"},{"name":"Lac-Frontière","term":"Municipality","latitude":"46.6956940","longitude":"-70.0032380"},{"name":"Lac-Mégantic","term":"Town","latitude":"45.5742160","longitude":"-70.8823710"},{"name":"Lac-Poulin","term":"Village Municipality","latitude":"46.1000000","longitude":"-70.8166667"},{"name":"Lac-Saguay","term":"Village Municipality","latitude":"46.5000000","longitude":"-75.1500000"},{"name":"Lac-Saint-Joseph","term":"Town","latitude":"46.9141720","longitude":"-71.6627020"},{"name":"Lac-Saint-Paul","term":"Municipality","latitude":"46.7324160","longitude":"-75.3108330"},{"name":"Lac-Sainte-Marie","term":"Municipality","latitude":"45.9494380","longitude":"-75.9455440"},{"name":"Lac-Sergent","term":"Town","latitude":"46.8683130","longitude":"-71.7260660"},{"name":"Lac-Simon","term":"Municipality","latitude":"45.9072500","longitude":"-75.0932100"},{"name":"Lac-Supérieur","term":"Municipality","latitude":"46.1829630","longitude":"-74.4747630"},{"name":"Lac-Tremblant-Nord","term":"Municipality","latitude":"46.1954520","longitude":"-74.6272820"},{"name":"Lac-au-Saumon","term":"Municipality","latitude":"48.4210430","longitude":"-67.3453580"},{"name":"Lac-aux-Sables","term":"Parish Municipality","latitude":"46.8590410","longitude":"-72.4003720"},{"name":"Lac-des-Aigles","term":"Town","latitude":"48.0352270","longitude":"-68.7851940"},{"name":"Lac-des-Plages","term":"Municipality","latitude":"45.9981800","longitude":"-74.8875990"},{"name":"Lac-des-Seize-Îles","term":"Municipality","latitude":"45.9247290","longitude":"-74.4708240"},{"name":"Lac-des-Écorces","term":"Municipality","latitude":"46.5563720","longitude":"-75.3489380"},{"name":"Lac-du-Cerf","term":"Municipality","latitude":"46.3023000","longitude":"-75.4967050"},{"name":"Lac-Édouard","term":"Municipality","latitude":"47.6600750","longitude":"-72.2708660"},{"name":"Lachine","term":"Borough","latitude":"45.4402778","longitude":"-73.7055556"},{"name":"Lachute","term":"Town","latitude":"45.6558000","longitude":"-74.3388460"},{"name":"Lacolle","term":"Municipality","latitude":"45.0806910","longitude":"-73.3731520"},{"name":"Laforce","term":"Municipality","latitude":"47.5364800","longitude":"-78.7265570"},{"name":"Lamarche","term":"Municipality","latitude":"48.7907880","longitude":"-71.4262600"},{"name":"Lambton","term":"Municipality","latitude":"45.8383710","longitude":"-71.0931440"},{"name":"Landrienne","term":"Township Municipality","latitude":"48.5500000","longitude":"-77.9500000"},{"name":"Lanoraie","term":"Municipality","latitude":"45.9617270","longitude":"-73.2216540"},{"name":"Lantier","term":"Municipality","latitude":"46.1493210","longitude":"-74.2517130"},{"name":"Larouche","term":"Municipality","latitude":"48.4497330","longitude":"-71.5356660"},{"name":"Latulipe-et-Gaboury","term":"United Townships Municipality","latitude":"47.4000000","longitude":"-79.0000000"},{"name":"Launay","term":"Township Municipality","latitude":"48.6500000","longitude":"-78.5333333"},{"name":"Laurier-Station","term":"Village Municipality","latitude":"46.5333334","longitude":"-71.6333333"},{"name":"Laurierville","term":"Municipality","latitude":"46.2948770","longitude":"-71.6577500"},{"name":"Laval","term":"Town","latitude":"45.5515380","longitude":"-73.7446160"},{"name":"Lavaltrie","term":"Town","latitude":"45.8845380","longitude":"-73.2769880"},{"name":"Laverlochère-Angliers","term":"Municipality","latitude":"47.4250040","longitude":"-79.3080020"},{"name":"Lawrenceville","term":"Village Municipality","latitude":"45.4166667","longitude":"-72.3500000"},{"name":"Le Plateau-Mont-Royal","term":"Borough","latitude":"45.5277778","longitude":"-73.5763889"},{"name":"Le Sud-Ouest","term":"Borough","latitude":"45.4722222","longitude":"-73.5930556"},{"name":"Le Vieux-Longueuil","term":"Borough","latitude":"45.5305560","longitude":"-73.5083330"},{"name":"Lebel-sur-Quévillon","term":"Town","latitude":"49.0520830","longitude":"-76.9760520"},{"name":"Leclercville","term":"Municipality","latitude":"46.5714880","longitude":"-72.0012050"},{"name":"Lefebvre","term":"Municipality","latitude":"45.7132000","longitude":"-72.4132520"},{"name":"Lejeune","term":"Municipality","latitude":"47.7683570","longitude":"-68.5753130"},{"name":"Lemieux","term":"Municipality","latitude":"46.2957630","longitude":"-72.1094410"},{"name":"Lennoxville","term":"Borough","latitude":"45.3666667","longitude":"-71.8625000"},{"name":"Les Bergeronnes","term":"Municipality","latitude":"48.2427350","longitude":"-69.5453020"},{"name":"Les Chutes-de-la-Chaudière-Est","term":"Borough","latitude":"46.6666666","longitude":"-71.2333333"},{"name":"Les Chutes-de-la-Chaudière-Ouest","term":"Borough","latitude":"46.6500000","longitude":"-71.3000000"},{"name":"Les Coteaux","term":"Municipality","latitude":"45.2603860","longitude":"-74.2034410"},{"name":"Les Cèdres","term":"Municipality","latitude":"45.3050970","longitude":"-74.0540580"},{"name":"Les Escoumins","term":"Municipality","latitude":"48.3514830","longitude":"-69.4073770"},{"name":"Les Hauteurs","term":"Municipality","latitude":"48.3773380","longitude":"-68.1132690"},{"name":"Les Méchins","term":"Municipality","latitude":"48.9978100","longitude":"-66.9802770"},{"name":"Les Nations","term":"Borough","latitude":"45.3874990","longitude":"-71.9083330"},{"name":"Les Rivières","term":"Borough","latitude":"46.8305556","longitude":"-71.3055556"},{"name":"Les Éboulements","term":"Municipality","latitude":"47.4798160","longitude":"-70.3178430"},{"name":"Les Îles-de-la-Madeleine","term":"Municipality","latitude":"47.3754380","longitude":"-61.8703020"},{"name":"Lingwick","term":"Township Municipality","latitude":"45.5833333","longitude":"-71.3333334"},{"name":"Litchfield","term":"Municipality","latitude":"45.7311040","longitude":"-76.5928690"},{"name":"Lochaber","term":"Township Municipality","latitude":"45.6333333","longitude":"-75.2166667"},{"name":"Lochaber-Partie-Ouest","term":"Township Municipality","latitude":"45.6166666","longitude":"-75.3000000"},{"name":"Longue-Pointe-de-Mingan","term":"Municipality","latitude":"50.2694240","longitude":"-64.1427600"},{"name":"Longue-Rive","term":"Municipality","latitude":"48.5664830","longitude":"-69.2346630"},{"name":"Longueuil","term":"Town","latitude":"45.5139470","longitude":"-73.4314930"},{"name":"Lorraine","term":"Town","latitude":"45.6597440","longitude":"-73.7765410"},{"name":"Lorrainville","term":"Municipality","latitude":"47.3527160","longitude":"-79.3530750"},{"name":"Lotbinière","term":"Municipality","latitude":"46.6169930","longitude":"-71.9295660"},{"name":"Louiseville","term":"Town","latitude":"46.2557770","longitude":"-72.9424020"},{"name":"Low","term":"Township Municipality","latitude":"45.8166666","longitude":"-75.9500000"},{"name":"Lyster","term":"Municipality","latitude":"46.3716460","longitude":"-71.6155940"},{"name":"Léry","term":"Town","latitude":"45.3448240","longitude":"-73.8062220"},{"name":"Lévis","term":"Town","latitude":"46.7581720","longitude":"-71.2403660"},{"name":"MacNider","term":"Borough","latitude":"48.6736111","longitude":"-67.9930556"},{"name":"Macamic","term":"Town","latitude":"48.7549500","longitude":"-79.0012130"},{"name":"Maddington Falls","term":"Municipality","latitude":"46.2166300","longitude":"-72.1421240"},{"name":"Magog","term":"Town","latitude":"45.2649910","longitude":"-72.1468580"},{"name":"Malartic","term":"Town","latitude":"48.1363330","longitude":"-78.1274130"},{"name":"Mandeville","term":"Municipality","latitude":"46.3573220","longitude":"-73.3544300"},{"name":"Maniwaki","term":"Town","latitude":"46.3745130","longitude":"-75.9818910"},{"name":"Manseau","term":"Municipality","latitude":"46.3662380","longitude":"-72.0027580"},{"name":"Mansfield-et-Pontefract","term":"Municipality","latitude":"45.8611910","longitude":"-76.7390080"},{"name":"Maria","term":"Municipality","latitude":"48.1774880","longitude":"-65.9804380"},{"name":"Maricourt","term":"Municipality","latitude":"45.5647470","longitude":"-72.2622440"},{"name":"Marieville","term":"Town","latitude":"45.4314020","longitude":"-73.1634750"},{"name":"Marsoui","term":"Village Municipality","latitude":"49.2166666","longitude":"-66.0666667"},{"name":"Marston","term":"Township Municipality","latitude":"45.5000000","longitude":"-71.0000000"},{"name":"Martinville","term":"Municipality","latitude":"45.2783540","longitude":"-71.7173100"},{"name":"Mascouche","term":"Town","latitude":"45.7455910","longitude":"-73.6017800"},{"name":"Maskinongé","term":"Municipality","latitude":"46.2225320","longitude":"-73.0162630"},{"name":"Massueville","term":"Village Municipality","latitude":"45.9166667","longitude":"-72.9333333"},{"name":"Matagami","term":"Town","latitude":"49.7583270","longitude":"-77.6219600"},{"name":"Matane","term":"Town","latitude":"48.8432380","longitude":"-67.5304350"},{"name":"Matapédia","term":"Municipality","latitude":"47.9749410","longitude":"-66.9412990"},{"name":"Mayo","term":"Municipality","latitude":"45.6628160","longitude":"-75.3441160"},{"name":"McMasterville","term":"Town","latitude":"45.5502300","longitude":"-73.2290380"},{"name":"Melbourne","term":"Township Municipality","latitude":"45.5833333","longitude":"-72.1666667"},{"name":"Mercier","term":"Town","latitude":"45.3118630","longitude":"-73.7452190"},{"name":"Mercier–Hochelaga-Maisonneuve","term":"Borough","latitude":"45.5652778","longitude":"-73.5388889"},{"name":"Messines","term":"Municipality","latitude":"46.2414460","longitude":"-76.0216210"},{"name":"Milan","term":"Municipality","latitude":"45.5882270","longitude":"-71.1226680"},{"name":"Mille-Isles","term":"Municipality","latitude":"45.8155000","longitude":"-74.2202990"},{"name":"Mirabel","term":"Town","latitude":"45.6636080","longitude":"-74.0020690"},{"name":"Mistissini","term":"Cree Village Municipality","latitude":"50.3166667","longitude":"-74.0166666"},{"name":"Moffet","term":"Municipality","latitude":"47.5434940","longitude":"-78.9514550"},{"name":"Mont-Blanc","term":"Municipality","latitude":"46.1333330","longitude":"-74.4833330"},{"name":"Mont-Carmel","term":"Municipality","latitude":"47.4416960","longitude":"-69.8554130"},{"name":"Mont-Joli","term":"Town","latitude":"48.5853580","longitude":"-68.1895960"},{"name":"Mont-Laurier","term":"Town","latitude":"46.5481440","longitude":"-75.5036190"},{"name":"Mont-Royal","term":"Town","latitude":"45.5132220","longitude":"-73.6417210"},{"name":"Mont-Saint-Grégoire","term":"Municipality","latitude":"45.3354800","longitude":"-73.1593860"},{"name":"Mont-Saint-Hilaire","term":"Town","latitude":"45.5651000","longitude":"-73.1909350"},{"name":"Mont-Saint-Michel","term":"Municipality","latitude":"46.7808070","longitude":"-75.3355050"},{"name":"Mont-Saint-Pierre","term":"Village Municipality","latitude":"49.2166666","longitude":"-65.8166667"},{"name":"Mont-Tremblant","term":"Town","latitude":"46.1181460","longitude":"-74.6002270"},{"name":"Montcalm","term":"Municipality","latitude":"45.9449710","longitude":"-74.5470580"},{"name":"Montcerf-Lytton","term":"Municipality","latitude":"46.5394690","longitude":"-76.0434520"},{"name":"Montebello","term":"Municipality","latitude":"45.6499740","longitude":"-74.9393600"},{"name":"Montmagny","term":"Town","latitude":"46.9811180","longitude":"-70.5574520"},{"name":"Montpellier","term":"Municipality","latitude":"45.8544500","longitude":"-75.1651220"},{"name":"Montréal","term":"Town","latitude":"45.5088220","longitude":"-73.5540770"},{"name":"Montréal-Est","term":"Town","latitude":"45.6313070","longitude":"-73.4955600"},{"name":"Montréal-Nord","term":"Borough","latitude":"45.6000000","longitude":"-73.6333330"},{"name":"Montréal-Ouest","term":"Town","latitude":"45.4513360","longitude":"-73.6421440"},{"name":"Morin-Heights","term":"Municipality","latitude":"45.9064130","longitude":"-74.2343660"},{"name":"Mulgrave-et-Derry","term":"Municipality","latitude":"45.5854330","longitude":"-75.4157800"},{"name":"Murdochville","term":"Town","latitude":"48.9604110","longitude":"-65.4962330"},{"name":"Métabetchouan–Lac-à-la-Croix","term":"Town","latitude":"48.4280180","longitude":"-71.8718240"},{"name":"Métis-sur-Mer","term":"Town","latitude":"48.6835960","longitude":"-67.9634830"},{"name":"Namur","term":"Municipality","latitude":"45.8953490","longitude":"-74.9286570"},{"name":"Nantes","term":"Municipality","latitude":"45.6319160","longitude":"-71.0233160"},{"name":"Napierville","term":"Municipality","latitude":"45.1886960","longitude":"-73.4034440"},{"name":"Natashquan","term":"Municipality","latitude":"50.1860880","longitude":"-61.8221290"},{"name":"Nemaska","term":"Cree Village Municipality","latitude":"51.7166670","longitude":"-76.3333330"},{"name":"Neuville","term":"Town","latitude":"46.6975300","longitude":"-71.5890330"},{"name":"New Carlisle","term":"Municipality","latitude":"48.0093380","longitude":"-65.3282710"},{"name":"New Richmond","term":"Town","latitude":"48.1622160","longitude":"-65.8616270"},{"name":"Newport","term":"Municipality","latitude":"45.3887740","longitude":"-71.4784710"},{"name":"Nicolet","term":"Town","latitude":"46.2263320","longitude":"-72.6161220"},{"name":"Nominingue","term":"Municipality","latitude":"46.3909770","longitude":"-75.0280410"},{"name":"Normandin","term":"Town","latitude":"48.8360520","longitude":"-72.5286380"},{"name":"Normétal","term":"Municipality","latitude":"48.9951240","longitude":"-79.3627880"},{"name":"North Hatley","term":"Village Municipality","latitude":"45.2833333","longitude":"-71.9666667"},{"name":"Notre-Dame-Auxiliatrice-de-Buckland","term":"Parish Municipality","latitude":"46.6200380","longitude":"-70.5442550"},{"name":"Notre-Dame-de-Bonsecours","term":"Municipality","latitude":"45.6704990","longitude":"-74.9820630"},{"name":"Notre-Dame-de-Ham","term":"Municipality","latitude":"45.9071520","longitude":"-71.7370710"},{"name":"Notre-Dame-de-Lorette","term":"Municipality","latitude":"49.0773040","longitude":"-72.3575630"},{"name":"Notre-Dame-de-Lourdes","term":"Parish Municipality","latitude":"46.3269430","longitude":"-71.8192990"},{"name":"Notre-Dame-de-Lourdes","term":"Municipality","latitude":"46.0997830","longitude":"-73.4267930"},{"name":"Notre-Dame-de-Montauban","term":"Municipality","latitude":"46.8759630","longitude":"-72.3088270"},{"name":"Notre-Dame-de-Pontmain","term":"Municipality","latitude":"46.2863830","longitude":"-75.6337660"},{"name":"Notre-Dame-de-Stanbridge","term":"Municipality","latitude":"45.1727240","longitude":"-73.0375910"},{"name":"Notre-Dame-de-l'Île-Perrot","term":"Town","latitude":"45.3500220","longitude":"-73.9026330"},{"name":"Notre-Dame-de-la-Merci","term":"Municipality","latitude":"46.2251850","longitude":"-74.0609410"},{"name":"Notre-Dame-de-la-Paix","term":"Municipality","latitude":"45.8087910","longitude":"-74.9651910"},{"name":"Notre-Dame-de-la-Salette","term":"Municipality","latitude":"45.7663440","longitude":"-75.5826680"},{"name":"Notre-Dame-des-Anges","term":"Parish Municipality","latitude":"46.8144500","longitude":"-71.2328600"},{"name":"Notre-Dame-des-Bois","term":"Municipality","latitude":"45.3925910","longitude":"-71.0736410"},{"name":"Notre-Dame-des-Monts","term":"Municipality","latitude":"47.6668990","longitude":"-70.3790600"},{"name":"Notre-Dame-des-Neiges","term":"Municipality","latitude":"48.0980460","longitude":"-69.2117220"},{"name":"Notre-Dame-des-Pins","term":"Parish Municipality","latitude":"46.1832630","longitude":"-70.7142130"},{"name":"Notre-Dame-des-Prairies","term":"Town","latitude":"46.0429710","longitude":"-73.4338100"},{"name":"Notre-Dame-des-Sept-Douleurs","term":"Parish Municipality","latitude":"48.0172490","longitude":"-69.4436240"},{"name":"Notre-Dame-du-Bon-Conseil","term":"Village Municipality","latitude":"46.0000000","longitude":"-72.3500000"},{"name":"Notre-Dame-du-Bon-Conseil","term":"Parish Municipality","latitude":"46.0006220","longitude":"-72.3442410"},{"name":"Notre-Dame-du-Laus","term":"Municipality","latitude":"46.0879330","longitude":"-75.6216630"},{"name":"Notre-Dame-du-Mont-Carmel","term":"Parish Municipality","latitude":"46.4720710","longitude":"-72.6752990"},{"name":"Notre-Dame-du-Nord","term":"Municipality","latitude":"47.5983880","longitude":"-79.4821410"},{"name":"Notre-Dame-du-Portage","term":"Municipality","latitude":"47.7656190","longitude":"-69.6098000"},{"name":"Notre-Dame-du-Rosaire","term":"Municipality","latitude":"46.8266320","longitude":"-70.3931880"},{"name":"Notre-Dame-du-Sacré-Cœur-d'Issoudun","term":"Parish Municipality","latitude":"46.5787680","longitude":"-71.6233740"},{"name":"Nouvelle","term":"Municipality","latitude":"48.1385660","longitude":"-66.3129800"},{"name":"Noyan","term":"Municipality","latitude":"45.0660330","longitude":"-73.2985300"},{"name":"Nédélec","term":"Township Municipality","latitude":"47.6833330","longitude":"-79.4333330"},{"name":"Ogden","term":"Municipality","latitude":"45.0249660","longitude":"-72.2151130"},{"name":"Oka","term":"Municipality","latitude":"45.4593500","longitude":"-74.0900740"},{"name":"Orford","term":"Township Municipality","latitude":"45.3833333","longitude":"-72.2000000"},{"name":"Ormstown","term":"Municipality","latitude":"45.1271660","longitude":"-73.9959270"},{"name":"Otter Lake","term":"Municipality","latitude":"45.8526160","longitude":"-76.4333440"},{"name":"Otterburn Park","term":"Town","latitude":"45.5410990","longitude":"-73.1883770"},{"name":"Outremont","term":"Borough","latitude":"45.5180556","longitude":"-73.6111111"},{"name":"Packington","term":"Parish Municipality","latitude":"47.4914740","longitude":"-68.7895740"},{"name":"Padoue","term":"Municipality","latitude":"48.5795930","longitude":"-67.9882270"},{"name":"Palmarolle","term":"Municipality","latitude":"48.6605380","longitude":"-79.2007360"},{"name":"Papineauville","term":"Municipality","latitude":"45.6191740","longitude":"-75.0181740"},{"name":"Parisville","term":"Parish Municipality","latitude":"46.5184820","longitude":"-72.0656190"},{"name":"Paspébiac","term":"Town","latitude":"48.0296020","longitude":"-65.2482190"},{"name":"Percé","term":"Town","latitude":"48.5239020","longitude":"-64.2107380"},{"name":"Petit-Saguenay","term":"Municipality","latitude":"48.2160610","longitude":"-70.0767020"},{"name":"Petite-Rivière-Saint-François","term":"Municipality","latitude":"47.3014630","longitude":"-70.5678910"},{"name":"Petite-Vallée","term":"Municipality","latitude":"49.2193180","longitude":"-65.0342830"},{"name":"Piedmont","term":"Municipality","latitude":"45.8989270","longitude":"-74.1320740"},{"name":"Pierrefonds-Roxboro","term":"Borough","latitude":"45.4777780","longitude":"-73.8583330"},{"name":"Pierreville","term":"Municipality","latitude":"46.0672290","longitude":"-72.8119330"},{"name":"Pike River","term":"Municipality","latitude":"45.1218540","longitude":"-73.0684570"},{"name":"Pincourt","term":"Town","latitude":"45.3570910","longitude":"-73.9822020"},{"name":"Piopolis","term":"Municipality","latitude":"45.4857830","longitude":"-70.9073360"},{"name":"Plaisance","term":"Municipality","latitude":"45.6065770","longitude":"-75.1121250"},{"name":"Plessisville","term":"Town","latitude":"46.2187290","longitude":"-71.7717210"},{"name":"Pohénégamook","term":"Town","latitude":"47.4570660","longitude":"-69.2402850"},{"name":"Pointe-Calumet","term":"Municipality","latitude":"45.4999580","longitude":"-73.9673630"},{"name":"Pointe-Claire","term":"Town","latitude":"45.4486100","longitude":"-73.8170740"},{"name":"Pointe-Fortune","term":"Municipality","latitude":"45.5617750","longitude":"-74.3812880"},{"name":"Pointe-Lebel","term":"Village Municipality","latitude":"49.1666667","longitude":"-68.2000000"},{"name":"Pointe-aux-Outardes","term":"Village Municipality","latitude":"49.0500000","longitude":"-68.4333333"},{"name":"Pointe-des-Cascades","term":"Village Municipality","latitude":"45.3333333","longitude":"-73.9666667"},{"name":"Pointe-à-la-Croix","term":"Municipality","latitude":"48.0279990","longitude":"-66.7001020"},{"name":"Pont-Rouge","term":"Town","latitude":"46.7568380","longitude":"-71.6949190"},{"name":"Pontiac","term":"Municipality","latitude":"45.5287240","longitude":"-76.0018690"},{"name":"Port-Cartier","term":"Town","latitude":"50.0187850","longitude":"-66.8753820"},{"name":"Port-Daniel–Gascons","term":"Municipality","latitude":"48.1795020","longitude":"-64.9705880"},{"name":"Portage-du-Fort","term":"Village Municipality","latitude":"45.6000000","longitude":"-76.6666667"},{"name":"Portneuf","term":"Town","latitude":"46.6908080","longitude":"-71.8888630"},{"name":"Portneuf-sur-Mer","term":"Municipality","latitude":"48.6181660","longitude":"-69.1019690"},{"name":"Potton","term":"Township Municipality","latitude":"45.0833333","longitude":"-72.3666666"},{"name":"Poularies","term":"Municipality","latitude":"48.6626690","longitude":"-78.9847690"},{"name":"Preissac","term":"Municipality","latitude":"48.4071550","longitude":"-78.3654470"},{"name":"Price","term":"Village Municipality","latitude":"48.6000000","longitude":"-68.1166666"},{"name":"Princeville","term":"Town","latitude":"46.1715930","longitude":"-71.8757070"},{"name":"Prévost","term":"Town","latitude":"45.8581550","longitude":"-74.0697570"},{"name":"Puvirnituq","term":"Northern Village Municipality","latitude":"60.0355270","longitude":"-77.2743210"},{"name":"Péribonka","term":"Municipality","latitude":"48.7657380","longitude":"-72.0496130"},{"name":"Quaqtaq","term":"Northern Village Municipality","latitude":"61.0333330","longitude":"-69.6166670"},{"name":"Québec","term":"Town","latitude":"46.8138190","longitude":"-71.2079970"},{"name":"Racine","term":"Municipality","latitude":"45.5036690","longitude":"-72.2483210"},{"name":"Ragueneau","term":"Parish Municipality","latitude":"49.0737540","longitude":"-68.4653910"},{"name":"Rapide-Danseur","term":"Municipality","latitude":"48.5509250","longitude":"-79.3013000"},{"name":"Rapides-des-Joachims","term":"Municipality","latitude":"46.1979740","longitude":"-77.6895210"},{"name":"Rawdon","term":"Municipality","latitude":"46.0423710","longitude":"-73.7074750"},{"name":"Repentigny","term":"Town","latitude":"45.7419660","longitude":"-73.4512860"},{"name":"Richelieu","term":"Town","latitude":"45.4432910","longitude":"-73.2533690"},{"name":"Richmond","term":"Town","latitude":"45.6655050","longitude":"-72.1471710"},{"name":"Rigaud","term":"Town","latitude":"45.4798040","longitude":"-74.3009770"},{"name":"Rimouski","term":"Town","latitude":"48.4491380","longitude":"-68.5250960"},{"name":"Ripon","term":"Municipality","latitude":"45.7826880","longitude":"-75.1014940"},{"name":"Ristigouche-Sud-Est","term":"Municipality","latitude":"48.0500000","longitude":"-66.8666667"},{"name":"Rivière-Beaudette","term":"Municipality","latitude":"45.2151750","longitude":"-74.3216350"},{"name":"Rivière-Bleue","term":"Municipality","latitude":"47.4358020","longitude":"-69.0423440"},{"name":"Rivière-Héva","term":"Municipality","latitude":"48.2381020","longitude":"-78.2166020"},{"name":"Rivière-Ouelle","term":"Municipality","latitude":"47.4337350","longitude":"-70.0180820"},{"name":"Rivière-Rouge","term":"Town","latitude":"46.4092300","longitude":"-74.8703040"},{"name":"Rivière-Saint-Jean","term":"Municipality","latitude":"50.3000000","longitude":"-64.3333334"},{"name":"Rivière-au-Tonnerre","term":"Municipality","latitude":"50.2756380","longitude":"-64.7751790"},{"name":"Rivière-des-Prairies–Pointe-aux-Trembles","term":"Borough","latitude":"45.6500000","longitude":"-73.5166670"},{"name":"Rivière-du-Loup","term":"Town","latitude":"47.8357520","longitude":"-69.5366080"},{"name":"Rivière-Éternité","term":"Municipality","latitude":"48.2551750","longitude":"-70.4139630"},{"name":"Rivière-à-Claude","term":"Municipality","latitude":"49.2184540","longitude":"-65.8949410"},{"name":"Rivière-à-Pierre","term":"Municipality","latitude":"46.9968850","longitude":"-72.1762020"},{"name":"Roberval","term":"Town","latitude":"48.5177710","longitude":"-72.2219960"},{"name":"Roquemaure","term":"Municipality","latitude":"48.6047110","longitude":"-79.4041410"},{"name":"Rosemont–La Petite-Patrie","term":"Borough","latitude":"45.5611111","longitude":"-73.5902778"},{"name":"Rosemère","term":"Town","latitude":"45.6390410","longitude":"-73.7850800"},{"name":"Rougemont","term":"Municipality","latitude":"45.4439990","longitude":"-73.0725410"},{"name":"Rouyn-Noranda","term":"Town","latitude":"48.2372222","longitude":"-79.0169444"},{"name":"Roxton","term":"Township Municipality","latitude":"45.5500000","longitude":"-72.5166667"},{"name":"Roxton Falls","term":"Village Municipality","latitude":"45.5666667","longitude":"-72.5166667"},{"name":"Roxton Pond","term":"Municipality","latitude":"45.4758430","longitude":"-72.6646440"},{"name":"Rémigny","term":"Municipality","latitude":"47.7618270","longitude":"-79.2083660"},{"name":"Sacré-Cœur","term":"Municipality","latitude":"48.2330990","longitude":"-69.8011630"},{"name":"Sacré-Cœur-de-Jésus","term":"Parish Municipality","latitude":"46.2350690","longitude":"-71.0578470"},{"name":"Saguenay","term":"Town","latitude":"48.4282210","longitude":"-71.0622020"},{"name":"Saint-Adalbert","term":"Municipality","latitude":"46.8653360","longitude":"-69.8996910"},{"name":"Saint-Adelme","term":"Parish Municipality","latitude":"48.8241040","longitude":"-67.3204660"},{"name":"Saint-Adelphe","term":"Parish Municipality","latitude":"46.7344710","longitude":"-72.4315960"},{"name":"Saint-Adolphe-d'Howard","term":"Municipality","latitude":"45.9698930","longitude":"-74.3358050"},{"name":"Saint-Adrien","term":"Municipality","latitude":"45.8195380","longitude":"-71.7228320"},{"name":"Saint-Adrien-d'Irlande","term":"Municipality","latitude":"46.1100380","longitude":"-71.4511080"},{"name":"Saint-Agapit","term":"Municipality","latitude":"46.5639080","longitude":"-71.4369270"},{"name":"Saint-Aimé","term":"Municipality","latitude":"45.9115520","longitude":"-72.9338910"},{"name":"Saint-Aimé-des-Lacs","term":"Municipality","latitude":"47.6825660","longitude":"-70.3087970"},{"name":"Saint-Aimé-du-Lac-des-Îles","term":"Municipality","latitude":"46.4038410","longitude":"-75.5275350"},{"name":"Saint-Alban","term":"Municipality","latitude":"46.7180490","longitude":"-72.0776040"},{"name":"Saint-Albert","term":"Municipality","latitude":"46.0011630","longitude":"-72.0888080"},{"name":"Saint-Alexandre","term":"Municipality","latitude":"45.2400190","longitude":"-73.1170880"},{"name":"Saint-Alexandre-de-Kamouraska","term":"Municipality","latitude":"47.6793570","longitude":"-69.6196520"},{"name":"Saint-Alexandre-des-Lacs","term":"Parish Municipality","latitude":"48.4756240","longitude":"-67.3058610"},{"name":"Saint-Alexis","term":"Municipality","latitude":"45.9333333","longitude":"-73.6166666"},{"name":"Saint-Alexis-de-Matapédia","term":"Municipality","latitude":"47.9666670","longitude":"-67.0500000"},{"name":"Saint-Alexis-des-Monts","term":"Parish Municipality","latitude":"46.4603830","longitude":"-73.1465740"},{"name":"Saint-Alfred","term":"Municipality","latitude":"46.1500000","longitude":"-70.8333333"},{"name":"Saint-Alphonse","term":"Municipality","latitude":"48.1833333","longitude":"-65.6333334"},{"name":"Saint-Alphonse-Rodriguez","term":"Municipality","latitude":"46.1833333","longitude":"-73.7000000"},{"name":"Saint-Alphonse-de-Granby","term":"Municipality","latitude":"45.3333330","longitude":"-72.8166670"},{"name":"Saint-Amable","term":"Town","latitude":"45.6500000","longitude":"-73.3000000"},{"name":"Saint-Ambroise","term":"Municipality","latitude":"48.5500000","longitude":"-71.3333334"},{"name":"Saint-Ambroise-de-Kildare","term":"Municipality","latitude":"46.0833334","longitude":"-73.5500000"},{"name":"Saint-Anaclet-de-Lessard","term":"Parish Municipality","latitude":"48.4716520","longitude":"-68.4335740"},{"name":"Saint-André-Avellin","term":"Municipality","latitude":"45.7166667","longitude":"-75.0666667"},{"name":"Saint-André-d'Argenteuil","term":"Municipality","latitude":"45.5666667","longitude":"-74.3333334"},{"name":"Saint-André-de-Kamouraska","term":"Municipality","latitude":"47.6833000","longitude":"-69.7333000"},{"name":"Saint-André-de-Restigouche","term":"Municipality","latitude":"48.0666667","longitude":"-66.9500000"},{"name":"Saint-André-du-Lac-Saint-Jean","term":"Village Municipality","latitude":"48.3166667","longitude":"-71.9833334"},{"name":"Saint-Anicet","term":"Municipality","latitude":"45.1166670","longitude":"-74.3500000"},{"name":"Saint-Anselme","term":"Municipality","latitude":"46.6333333","longitude":"-70.9666667"},{"name":"Saint-Antoine-de-Tilly","term":"Municipality","latitude":"46.6666666","longitude":"-71.5833334"},{"name":"Saint-Antoine-de-l'Isle-aux-Grues","term":"Parish Municipality","latitude":"47.0666820","longitude":"-70.5394520"},{"name":"Saint-Antoine-sur-Richelieu","term":"Municipality","latitude":"45.7830556","longitude":"-73.1750000"},{"name":"Saint-Antonin","term":"Town","latitude":"47.7666667","longitude":"-69.4833333"},{"name":"Saint-Apollinaire","term":"Municipality","latitude":"46.6166667","longitude":"-71.5166666"},{"name":"Saint-Armand","term":"Municipality","latitude":"45.0333334","longitude":"-73.0500000"},{"name":"Saint-Arsène","term":"Parish Municipality","latitude":"47.9127330","longitude":"-69.4329600"},{"name":"Saint-Athanase","term":"Municipality","latitude":"47.4333333","longitude":"-69.4166667"},{"name":"Saint-Aubert","term":"Municipality","latitude":"47.1833334","longitude":"-70.2166666"},{"name":"Saint-Augustin","term":"Municipality","latitude":"51.2166667","longitude":"-58.6500000"},{"name":"Saint-Augustin","term":"Parish Municipality","latitude":"48.8051940","longitude":"-71.9425100"},{"name":"Saint-Augustin-de-Desmaures","term":"Town","latitude":"46.7468660","longitude":"-71.4594360"},{"name":"Saint-Augustin-de-Woburn","term":"Parish Municipality","latitude":"45.3849270","longitude":"-70.8636080"},{"name":"Saint-Barnabé","term":"Parish Municipality","latitude":"46.3941740","longitude":"-72.8781990"},{"name":"Saint-Barnabé-Sud","term":"Municipality","latitude":"45.7333333","longitude":"-72.9166667"},{"name":"Saint-Barthélemy","term":"Parish Municipality","latitude":"46.1915080","longitude":"-73.1191910"},{"name":"Saint-Basile","term":"Town","latitude":"46.7565220","longitude":"-71.8257460"},{"name":"Saint-Basile-le-Grand","term":"Town","latitude":"45.5261410","longitude":"-73.2875380"},{"name":"Saint-Benjamin","term":"Municipality","latitude":"46.2833334","longitude":"-70.6000000"},{"name":"Saint-Benoît-Labre","term":"Municipality","latitude":"46.0666670","longitude":"-70.8000000"},{"name":"Saint-Benoît-du-Lac","term":"Municipality","latitude":"45.1666666","longitude":"-72.2666667"},{"name":"Saint-Bernard","term":"Municipality","latitude":"46.5000000","longitude":"-71.1333334"},{"name":"Saint-Bernard-de-Lacolle","term":"Municipality","latitude":"45.0833333","longitude":"-73.4166666"},{"name":"Saint-Bernard-de-Michaudville","term":"Municipality","latitude":"45.8333333","longitude":"-73.0666667"},{"name":"Saint-Blaise-sur-Richelieu","term":"Municipality","latitude":"45.2166667","longitude":"-73.2833334"},{"name":"Saint-Bonaventure","term":"Municipality","latitude":"45.9666667","longitude":"-72.6833333"},{"name":"Saint-Boniface","term":"Municipality","latitude":"46.5000000","longitude":"-72.8166670"},{"name":"Saint-Bruno","term":"Municipality","latitude":"48.4666667","longitude":"-71.6500000"},{"name":"Saint-Bruno-de-Guigues","term":"Municipality","latitude":"47.4666670","longitude":"-79.4333330"},{"name":"Saint-Bruno-de-Kamouraska","term":"Municipality","latitude":"47.4500000","longitude":"-69.7500000"},{"name":"Saint-Bruno-de-Montarville","term":"Town","latitude":"45.5260070","longitude":"-73.3405910"},{"name":"Saint-Calixte","term":"Municipality","latitude":"45.9500000","longitude":"-73.8500000"},{"name":"Saint-Camille","term":"Township Municipality","latitude":"45.6833334","longitude":"-71.7000000"},{"name":"Saint-Camille-de-Lellis","term":"Parish Municipality","latitude":"46.5005130","longitude":"-70.2060830"},{"name":"Saint-Casimir","term":"Municipality","latitude":"46.6500000","longitude":"-72.1333333"},{"name":"Saint-Charles-Borromée","term":"Town","latitude":"46.0500000","longitude":"-73.4666667"},{"name":"Saint-Charles-Garnier","term":"Parish Municipality","latitude":"48.3419770","longitude":"-68.0452270"},{"name":"Saint-Charles-de-Bellechasse","term":"Municipality","latitude":"46.7666667","longitude":"-70.9500000"},{"name":"Saint-Charles-de-Bourget","term":"Municipality","latitude":"48.5666666","longitude":"-71.3666667"},{"name":"Saint-Charles-sur-Richelieu","term":"Municipality","latitude":"45.6833334","longitude":"-73.1833333"},{"name":"Saint-Christophe-d'Arthabaska","term":"Parish Municipality","latitude":"46.0302020","longitude":"-71.9315960"},{"name":"Saint-Chrysostome","term":"Municipality","latitude":"45.1000000","longitude":"-73.7666667"},{"name":"Saint-Claude","term":"Municipality","latitude":"45.6666667","longitude":"-71.9833334"},{"name":"Saint-Clet","term":"Municipality","latitude":"45.3500000","longitude":"-74.2166667"},{"name":"Saint-Clément","term":"Municipality","latitude":"47.9166666","longitude":"-69.1000000"},{"name":"Saint-Cléophas","term":"Parish Municipality","latitude":"48.4926520","longitude":"-67.7432080"},{"name":"Saint-Cléophas-de-Brandon","term":"Municipality","latitude":"46.2333333","longitude":"-73.4166666"},{"name":"Saint-Colomban","term":"Town","latitude":"45.7389020","longitude":"-74.1357350"},{"name":"Saint-Constant","term":"Town","latitude":"45.3716180","longitude":"-73.5709820"},{"name":"Saint-Cuthbert","term":"Municipality","latitude":"46.1500000","longitude":"-73.2333333"},{"name":"Saint-Cyprien","term":"Municipality","latitude":"47.9000000","longitude":"-69.0166667"},{"name":"Saint-Cyprien","term":"Parish Municipality","latitude":"46.3544610","longitude":"-70.2657380"},{"name":"Saint-Cyprien-de-Napierville","term":"Municipality","latitude":"45.1833330","longitude":"-73.4166670"},{"name":"Saint-Cyrille-de-Lessard","term":"Parish Municipality","latitude":"47.0351240","longitude":"-70.2726270"},{"name":"Saint-Cyrille-de-Wendover","term":"Municipality","latitude":"45.9333333","longitude":"-72.4333334"},{"name":"Saint-Célestin","term":"Municipality","latitude":"46.2166666","longitude":"-72.4333334"},{"name":"Saint-Célestin","term":"Village Municipality","latitude":"46.2166666","longitude":"-72.4333334"},{"name":"Saint-Césaire","term":"Town","latitude":"45.4100380","longitude":"-73.0040270"},{"name":"Saint-Côme","term":"Municipality","latitude":"46.2690930","longitude":"-73.7748160"},{"name":"Saint-Côme–Linière","term":"Municipality","latitude":"46.0666667","longitude":"-70.5166667"},{"name":"Saint-Damase","term":"Parish Municipality","latitude":"48.6611860","longitude":"-67.8268540"},{"name":"Saint-Damase","term":"Municipality","latitude":"45.5333333","longitude":"-73.0000000"},{"name":"Saint-Damase-de-L'Islet","term":"Municipality","latitude":"47.2000000","longitude":"-70.1333333"},{"name":"Saint-Damien","term":"Parish Municipality","latitude":"46.3348100","longitude":"-73.4794070"},{"name":"Saint-Damien-de-Buckland","term":"Parish Municipality","latitude":"46.6296740","longitude":"-70.6658520"},{"name":"Saint-David","term":"Municipality","latitude":"45.9500000","longitude":"-72.8500000"},{"name":"Saint-David-de-Falardeau","term":"Municipality","latitude":"48.6166667","longitude":"-71.1166667"},{"name":"Saint-Denis-De La Bouteillerie","term":"Municipality","latitude":"47.5000000","longitude":"-69.9333333"},{"name":"Saint-Denis-de-Brompton","term":"Municipality","latitude":"45.4500000","longitude":"-72.0833330"},{"name":"Saint-Denis-sur-Richelieu","term":"Municipality","latitude":"45.7833333","longitude":"-73.1500000"},{"name":"Saint-Didace","term":"Parish Municipality","latitude":"46.3291990","longitude":"-73.2830710"},{"name":"Saint-Dominique","term":"Municipality","latitude":"45.5666667","longitude":"-72.8500000"},{"name":"Saint-Dominique-du-Rosaire","term":"Municipality","latitude":"48.7666666","longitude":"-78.1166667"},{"name":"Saint-Donat","term":"Parish Municipality","latitude":"48.4956160","longitude":"-68.2440910"},{"name":"Saint-Donat","term":"Municipality","latitude":"46.3166667","longitude":"-74.2166667"},{"name":"Saint-Edmond-de-Grantham","term":"Municipality","latitude":"45.8816660","longitude":"-72.6761660"},{"name":"Saint-Edmond-les-Plaines","term":"Municipality","latitude":"48.9000000","longitude":"-72.5500000"},{"name":"Saint-Elphège","term":"Parish Municipality","latitude":"46.0547470","longitude":"-72.7034000"},{"name":"Saint-Elzéar","term":"Municipality","latitude":"46.4000000","longitude":"-71.0666666"},{"name":"Saint-Elzéar","term":"Municipality","latitude":"48.1500000","longitude":"-65.4000000"},{"name":"Saint-Elzéar-de-Témiscouata","term":"Municipality","latitude":"47.5833334","longitude":"-69.1000000"},{"name":"Saint-Esprit","term":"Municipality","latitude":"45.9000000","longitude":"-73.6666667"},{"name":"Saint-Eugène","term":"Municipality","latitude":"45.8000000","longitude":"-72.7000000"},{"name":"Saint-Eugène-d'Argentenay","term":"Municipality","latitude":"48.9833333","longitude":"-72.2833333"},{"name":"Saint-Eugène-de-Guigues","term":"Municipality","latitude":"47.5166666","longitude":"-79.3500000"},{"name":"Saint-Eugène-de-Ladrière","term":"Parish Municipality","latitude":"48.2479520","longitude":"-68.8003250"},{"name":"Saint-Eustache","term":"Town","latitude":"45.5576220","longitude":"-73.8886380"},{"name":"Saint-Eusèbe","term":"Parish Municipality","latitude":"47.5436020","longitude":"-68.9132500"},{"name":"Saint-Fabien","term":"Parish Municipality","latitude":"48.2934710","longitude":"-68.8659250"},{"name":"Saint-Fabien-de-Panet","term":"Parish Municipality","latitude":"46.6560720","longitude":"-70.1470380"},{"name":"Saint-Ferdinand","term":"Municipality","latitude":"46.1000000","longitude":"-71.5666670"},{"name":"Saint-Ferréol-les-Neiges","term":"Municipality","latitude":"47.1166667","longitude":"-70.8500000"},{"name":"Saint-Flavien","term":"Municipality","latitude":"46.5166667","longitude":"-71.6000000"},{"name":"Saint-Fortunat","term":"Municipality","latitude":"45.9666667","longitude":"-71.6000000"},{"name":"Saint-François-Xavier-de-Brompton","term":"Municipality","latitude":"45.5333333","longitude":"-72.0500000"},{"name":"Saint-François-Xavier-de-Viger","term":"Municipality","latitude":"47.8569440","longitude":"-69.2458330"},{"name":"Saint-François-d'Assise","term":"Municipality","latitude":"47.9833330","longitude":"-67.1666670"},{"name":"Saint-François-de-Sales","term":"Municipality","latitude":"48.3166667","longitude":"-72.1333333"},{"name":"Saint-François-de-l'Île-d'Orléans","term":"Municipality","latitude":"47.0000000","longitude":"-70.8166670"},{"name":"Saint-François-de-la-Rivière-du-Sud","term":"Municipality","latitude":"46.8833333","longitude":"-70.7166667"},{"name":"Saint-François-du-Lac","term":"Municipality","latitude":"46.0666667","longitude":"-72.8333334"},{"name":"Saint-Frédéric","term":"Parish Municipality","latitude":"46.2977580","longitude":"-70.9704380"},{"name":"Saint-Fulgence","term":"Municipality","latitude":"48.4500000","longitude":"-70.9000000"},{"name":"Saint-Félicien","term":"Town","latitude":"48.6527250","longitude":"-72.4466910"},{"name":"Saint-Félix-d'Otis","term":"Municipality","latitude":"48.2666667","longitude":"-70.6166667"},{"name":"Saint-Félix-de-Dalquier","term":"Municipality","latitude":"48.6833333","longitude":"-78.1166667"},{"name":"Saint-Félix-de-Kingsey","term":"Municipality","latitude":"45.8000000","longitude":"-72.1833334"},{"name":"Saint-Félix-de-Valois","term":"Municipality","latitude":"46.1666667","longitude":"-73.4333333"},{"name":"Saint-Gabriel","term":"Town","latitude":"46.2936770","longitude":"-73.3828660"},{"name":"Saint-Gabriel-Lalemant","term":"Municipality","latitude":"47.3833334","longitude":"-69.9333333"},{"name":"Saint-Gabriel-de-Brandon","term":"Municipality","latitude":"46.2666667","longitude":"-73.3833333"},{"name":"Saint-Gabriel-de-Rimouski","term":"Municipality","latitude":"48.4166667","longitude":"-68.1666667"},{"name":"Saint-Gabriel-de-Valcartier","term":"Municipality","latitude":"46.9333334","longitude":"-71.4666667"},{"name":"Saint-Georges","term":"Town","latitude":"46.1229380","longitude":"-70.6711630"},{"name":"Saint-Georges-de-Windsor","term":"Municipality","latitude":"45.7000000","longitude":"-71.8333333"},{"name":"Saint-Germain-de-Grantham","term":"Municipality","latitude":"45.8333333","longitude":"-72.5666666"},{"name":"Saint-Germain-de-Kamouraska","term":"Municipality","latitude":"47.5882000","longitude":"-69.7981000"},{"name":"Saint-Gervais","term":"Municipality","latitude":"46.7166667","longitude":"-70.8833333"},{"name":"Saint-Gilbert","term":"Parish Municipality","latitude":"46.7158630","longitude":"-71.9940800"},{"name":"Saint-Gilles","term":"Municipality","latitude":"46.5166667","longitude":"-71.3666667"},{"name":"Saint-Godefroi","term":"Township Municipality","latitude":"48.0833333","longitude":"-65.1166666"},{"name":"Saint-Guillaume","term":"Municipality","latitude":"45.8833334","longitude":"-72.7666666"},{"name":"Saint-Gédéon","term":"Municipality","latitude":"48.5000000","longitude":"-71.7666667"},{"name":"Saint-Gédéon-de-Beauce","term":"Municipality","latitude":"45.8500000","longitude":"-70.6333333"},{"name":"Saint-Gérard-Majella","term":"Parish Municipality","latitude":"46.0049630","longitude":"-72.8390350"},{"name":"Saint-Henri","term":"Municipality","latitude":"46.7000000","longitude":"-71.0666666"},{"name":"Saint-Henri-de-Taillon","term":"Municipality","latitude":"48.6666667","longitude":"-71.8333333"},{"name":"Saint-Herménégilde","term":"Municipality","latitude":"45.1000000","longitude":"-71.6666667"},{"name":"Saint-Hilaire-de-Dorset","term":"Parish Municipality","latitude":"45.8655860","longitude":"-70.8566610"},{"name":"Saint-Hilarion","term":"Parish Municipality","latitude":"47.5785490","longitude":"-70.4020190"},{"name":"Saint-Hippolyte","term":"Municipality","latitude":"45.9333333","longitude":"-74.0166666"},{"name":"Saint-Honoré","term":"Town","latitude":"48.5345270","longitude":"-71.0861960"},{"name":"Saint-Honoré-de-Shenley","term":"Municipality","latitude":"45.9666667","longitude":"-70.8333333"},{"name":"Saint-Honoré-de-Témiscouata","term":"Municipality","latitude":"47.7000000","longitude":"-69.1333333"},{"name":"Saint-Hubert","term":"Borough","latitude":"45.4875000","longitude":"-73.4291670"},{"name":"Saint-Hubert-de-Rivière-du-Loup","term":"Municipality","latitude":"47.8166667","longitude":"-69.1500000"},{"name":"Saint-Hugues","term":"Municipality","latitude":"45.8000000","longitude":"-72.8666667"},{"name":"Saint-Hyacinthe","term":"Town","latitude":"45.6259020","longitude":"-72.9464630"},{"name":"Saint-Ignace-de-Loyola","term":"Municipality","latitude":"46.0666670","longitude":"-73.1333330"},{"name":"Saint-Ignace-de-Stanbridge","term":"Municipality","latitude":"45.1666670","longitude":"-72.9500000"},{"name":"Saint-Irénée","term":"Municipality","latitude":"47.5710430","longitude":"-70.2074190"},{"name":"Saint-Isidore","term":"Parish Municipality","latitude":"45.3001020","longitude":"-73.6802740"},{"name":"Saint-Isidore","term":"Municipality","latitude":"46.5833333","longitude":"-71.1000000"},{"name":"Saint-Isidore-de-Clifton","term":"Municipality","latitude":"45.2666667","longitude":"-71.5166666"},{"name":"Saint-Jacques","term":"Municipality","latitude":"45.9500000","longitude":"-73.5666667"},{"name":"Saint-Jacques-de-Leeds","term":"Municipality","latitude":"46.2833334","longitude":"-71.3500000"},{"name":"Saint-Jacques-le-Majeur-de-Wolfestown","term":"Parish Municipality","latitude":"45.9404020","longitude":"-71.5040020"},{"name":"Saint-Jacques-le-Mineur","term":"Municipality","latitude":"45.2833333","longitude":"-73.4166666"},{"name":"Saint-Janvier-de-Joly","term":"Municipality","latitude":"46.4833333","longitude":"-71.6666667"},{"name":"Saint-Jean-Baptiste","term":"Municipality","latitude":"45.5166670","longitude":"-73.1166670"},{"name":"Saint-Jean-Port-Joli","term":"Municipality","latitude":"47.2166667","longitude":"-70.2666667"},{"name":"Saint-Jean-de-Brébeuf","term":"Municipality","latitude":"46.1833333","longitude":"-71.4666667"},{"name":"Saint-Jean-de-Cherbourg","term":"Parish Municipality","latitude":"48.8586300","longitude":"-67.1110520"},{"name":"Saint-Jean-de-Dieu","term":"Municipality","latitude":"48.0000000","longitude":"-69.0500000"},{"name":"Saint-Jean-de-Matha","term":"Municipality","latitude":"46.2333333","longitude":"-73.5333333"},{"name":"Saint-Jean-de-l'Île-d'Orléans","term":"Municipality","latitude":"46.9166670","longitude":"-70.9000000"},{"name":"Saint-Jean-de-la-Lande","term":"Municipality","latitude":"47.4333333","longitude":"-68.6833333"},{"name":"Saint-Jean-sur-Richelieu","term":"Town","latitude":"45.3056720","longitude":"-73.2538130"},{"name":"Saint-Joachim","term":"Parish Municipality","latitude":"47.0538550","longitude":"-70.8434660"},{"name":"Saint-Joachim-de-Shefford","term":"Municipality","latitude":"45.4500000","longitude":"-72.5333333"},{"name":"Saint-Joseph-de-Beauce","term":"Town","latitude":"46.3075550","longitude":"-70.8795820"},{"name":"Saint-Joseph-de-Coleraine","term":"Municipality","latitude":"45.9666667","longitude":"-71.3666667"},{"name":"Saint-Joseph-de-Kamouraska","term":"Parish Municipality","latitude":"47.6102630","longitude":"-69.6420270"},{"name":"Saint-Joseph-de-Lepage","term":"Parish Municipality","latitude":"48.5770040","longitude":"-68.1679630"},{"name":"Saint-Joseph-de-Sorel","term":"Town","latitude":"46.0422222","longitude":"-73.1258333"},{"name":"Saint-Joseph-des-Érables","term":"Municipality","latitude":"46.2833334","longitude":"-70.9166667"},{"name":"Saint-Joseph-du-Lac","term":"Municipality","latitude":"45.5333333","longitude":"-74.0000000"},{"name":"Saint-Jude","term":"Municipality","latitude":"45.7666667","longitude":"-72.9833333"},{"name":"Saint-Jules","term":"Parish Municipality","latitude":"46.2239570","longitude":"-70.9476960"},{"name":"Saint-Julien","term":"Municipality","latitude":"46.0000000","longitude":"-71.5333330"},{"name":"Saint-Just-de-Bretenières","term":"Municipality","latitude":"46.5666667","longitude":"-70.1000000"},{"name":"Saint-Juste-du-Lac","term":"Municipality","latitude":"47.6500000","longitude":"-68.7500000"},{"name":"Saint-Justin","term":"Municipality","latitude":"46.2500000","longitude":"-73.0833330"},{"name":"Saint-Jérôme","term":"Town","latitude":"45.7752520","longitude":"-74.0037080"},{"name":"Saint-Lambert","term":"Parish Municipality","latitude":"48.9541080","longitude":"-79.4602690"},{"name":"Saint-Lambert","term":"Town","latitude":"45.5015770","longitude":"-73.5131080"},{"name":"Saint-Lambert-de-Lauzon","term":"Municipality","latitude":"46.5833333","longitude":"-71.2000000"},{"name":"Saint-Laurent","term":"Borough","latitude":"45.5069444","longitude":"-73.6888889"},{"name":"Saint-Laurent-de-l'Île-d'Orléans","term":"Municipality","latitude":"46.8666666","longitude":"-71.0166667"},{"name":"Saint-Lazare","term":"Town","latitude":"45.3993690","longitude":"-74.1412270"},{"name":"Saint-Lazare-de-Bellechasse","term":"Municipality","latitude":"46.6500000","longitude":"-70.8000000"},{"name":"Saint-Liboire","term":"Municipality","latitude":"45.6500000","longitude":"-72.7666666"},{"name":"Saint-Liguori","term":"Municipality","latitude":"46.0166666","longitude":"-73.5666667"},{"name":"Saint-Lin–Laurentides","term":"Town","latitude":"45.8516910","longitude":"-73.7556630"},{"name":"Saint-Louis","term":"Municipality","latitude":"45.8500000","longitude":"-72.9833330"},{"name":"Saint-Louis-de-Blandford","term":"Municipality","latitude":"46.2500000","longitude":"-72.0000000"},{"name":"Saint-Louis-de-Gonzague","term":"Municipality","latitude":"46.2666667","longitude":"-70.3333333"},{"name":"Saint-Louis-de-Gonzague","term":"Parish Municipality","latitude":"45.2147130","longitude":"-73.9983690"},{"name":"Saint-Louis-de-Gonzague-du-Cap-Tourmente","term":"Parish Municipality","latitude":"47.0614970","longitude":"-70.8055300"},{"name":"Saint-Louis-du-Ha! Ha!","term":"Parish Municipality","latitude":"47.6703430","longitude":"-68.9815490"},{"name":"Saint-Luc-de-Bellechasse","term":"Municipality","latitude":"46.5000000","longitude":"-70.4833330"},{"name":"Saint-Luc-de-Vincennes","term":"Municipality","latitude":"46.5000000","longitude":"-72.4166667"},{"name":"Saint-Lucien","term":"Municipality","latitude":"45.8666670","longitude":"-72.2666670"},{"name":"Saint-Ludger","term":"Municipality","latitude":"45.7500000","longitude":"-70.7000000"},{"name":"Saint-Ludger-de-Milot","term":"Municipality","latitude":"48.9000000","longitude":"-71.8166667"},{"name":"Saint-Léandre","term":"Parish Municipality","latitude":"48.7303740","longitude":"-67.6051270"},{"name":"Saint-Léon-de-Standon","term":"Parish Municipality","latitude":"46.4785240","longitude":"-70.6196600"},{"name":"Saint-Léon-le-Grand","term":"Parish Municipality","latitude":"46.3130080","longitude":"-72.9359440"},{"name":"Saint-Léon-le-Grand","term":"Parish Municipality","latitude":"48.3792240","longitude":"-67.5037050"},{"name":"Saint-Léonard","term":"Borough","latitude":"45.5916667","longitude":"-73.6000000"},{"name":"Saint-Léonard-d'Aston","term":"Municipality","latitude":"46.1000000","longitude":"-72.3666666"},{"name":"Saint-Léonard-de-Portneuf","term":"Municipality","latitude":"46.8833333","longitude":"-71.9166666"},{"name":"Saint-Magloire","term":"Municipality","latitude":"46.5833333","longitude":"-70.2833334"},{"name":"Saint-Majorique-de-Grantham","term":"Parish Municipality","latitude":"45.9311460","longitude":"-72.5808350"},{"name":"Saint-Malachie","term":"Parish Municipality","latitude":"46.5319910","longitude":"-70.7654000"},{"name":"Saint-Malo","term":"Municipality","latitude":"45.2000000","longitude":"-71.5000000"},{"name":"Saint-Marc-de-Figuery","term":"Parish Municipality","latitude":"48.4726040","longitude":"-78.0451270"},{"name":"Saint-Marc-des-Carrières","term":"Town","latitude":"46.6803100","longitude":"-72.0489690"},{"name":"Saint-Marc-du-Lac-Long","term":"Parish Municipality","latitude":"47.3887050","longitude":"-68.8956350"},{"name":"Saint-Marc-sur-Richelieu","term":"Municipality","latitude":"45.6833334","longitude":"-73.2000000"},{"name":"Saint-Marcel","term":"Municipality","latitude":"46.9000000","longitude":"-70.0666667"},{"name":"Saint-Marcel-de-Richelieu","term":"Municipality","latitude":"45.8666667","longitude":"-72.9000000"},{"name":"Saint-Marcellin","term":"Parish Municipality","latitude":"48.3352520","longitude":"-68.2923630"},{"name":"Saint-Martin","term":"Parish Municipality","latitude":"45.9590440","longitude":"-70.6555660"},{"name":"Saint-Mathias-sur-Richelieu","term":"Municipality","latitude":"45.4666667","longitude":"-73.2666667"},{"name":"Saint-Mathieu","term":"Municipality","latitude":"45.3166667","longitude":"-73.5166667"},{"name":"Saint-Mathieu-d'Harricana","term":"Municipality","latitude":"48.4666667","longitude":"-78.1333334"},{"name":"Saint-Mathieu-de-Belœil","term":"Municipality","latitude":"45.5666667","longitude":"-73.2000000"},{"name":"Saint-Mathieu-de-Rioux","term":"Municipality","latitude":"48.1840520","longitude":"-68.9846350"},{"name":"Saint-Mathieu-du-Parc","term":"Municipality","latitude":"46.5666667","longitude":"-72.9166667"},{"name":"Saint-Maurice","term":"Parish Municipality","latitude":"46.4702680","longitude":"-72.5286630"},{"name":"Saint-Maxime-du-Mont-Louis","term":"Municipality","latitude":"49.2333333","longitude":"-65.7333333"},{"name":"Saint-Michel","term":"Municipality","latitude":"45.2333330","longitude":"-73.5666670"},{"name":"Saint-Michel-de-Bellechasse","term":"Municipality","latitude":"46.8666666","longitude":"-70.9166667"},{"name":"Saint-Michel-des-Saints","term":"Municipality","latitude":"46.6833333","longitude":"-73.9166667"},{"name":"Saint-Michel-du-Squatec","term":"Municipality","latitude":"47.8833333","longitude":"-68.7166666"},{"name":"Saint-Modeste","term":"Municipality","latitude":"47.8333333","longitude":"-69.4000000"},{"name":"Saint-Moïse","term":"Parish Municipality","latitude":"48.5509630","longitude":"-67.8523220"},{"name":"Saint-Médard","term":"Municipality","latitude":"48.0333334","longitude":"-68.9000000"},{"name":"Saint-Narcisse","term":"Parish Municipality","latitude":"46.5634800","longitude":"-72.4731880"},{"name":"Saint-Narcisse-de-Beaurivage","term":"Parish Municipality","latitude":"46.4828040","longitude":"-71.2328270"},{"name":"Saint-Narcisse-de-Rimouski","term":"Parish Municipality","latitude":"48.2859770","longitude":"-68.4386410"},{"name":"Saint-Nazaire","term":"Municipality","latitude":"48.5833333","longitude":"-71.5333333"},{"name":"Saint-Nazaire-d'Acton","term":"Parish Municipality","latitude":"45.7398300","longitude":"-72.6179540"},{"name":"Saint-Nazaire-de-Dorchester","term":"Parish Municipality","latitude":"46.5523800","longitude":"-70.6609360"},{"name":"Saint-Norbert","term":"Parish Municipality","latitude":"46.1676790","longitude":"-73.3123910"},{"name":"Saint-Norbert-d'Arthabaska","term":"Municipality","latitude":"46.1000000","longitude":"-71.8166670"},{"name":"Saint-Noël","term":"Village Municipality","latitude":"48.5833333","longitude":"-67.8333333"},{"name":"Saint-Nérée-de-Bellechasse","term":"Municipality","latitude":"46.7333330","longitude":"-70.7166670"},{"name":"Saint-Octave-de-Métis","term":"Parish Municipality","latitude":"48.6001520","longitude":"-68.0803930"},{"name":"Saint-Odilon-de-Cranbourne","term":"Municipality","latitude":"46.3566270","longitude":"-70.6773430"},{"name":"Saint-Omer","term":"Municipality","latitude":"47.0500000","longitude":"-69.7333333"},{"name":"Saint-Onésime-d'Ixworth","term":"Municipality","latitude":"47.3000000","longitude":"-69.9333333"},{"name":"Saint-Ours","term":"Town","latitude":"45.8894130","longitude":"-73.1501610"},{"name":"Saint-Pacôme","term":"Municipality","latitude":"47.4000000","longitude":"-69.9500000"},{"name":"Saint-Pamphile","term":"Town","latitude":"46.9606220","longitude":"-69.7776820"},{"name":"Saint-Pascal","term":"Town","latitude":"47.5282820","longitude":"-69.8079000"},{"name":"Saint-Patrice-de-Beaurivage","term":"Municipality","latitude":"46.4166667","longitude":"-71.2333333"},{"name":"Saint-Patrice-de-Sherrington","term":"Municipality","latitude":"45.1666666","longitude":"-73.5166667"},{"name":"Saint-Paul","term":"Municipality","latitude":"45.9833333","longitude":"-73.4500000"},{"name":"Saint-Paul-d'Abbotsford","term":"Municipality","latitude":"45.4333330","longitude":"-72.8833330"},{"name":"Saint-Paul-de-Montminy","term":"Municipality","latitude":"46.7333334","longitude":"-70.3666667"},{"name":"Saint-Paul-de-l'Île-aux-Noix","term":"Municipality","latitude":"45.1333330","longitude":"-73.2833330"},{"name":"Saint-Paul-de-la-Croix","term":"Municipality","latitude":"47.9526690","longitude":"-69.1943410"},{"name":"Saint-Paulin","term":"Municipality","latitude":"46.4166667","longitude":"-73.0333334"},{"name":"Saint-Philibert","term":"Municipality","latitude":"46.1333333","longitude":"-70.5500000"},{"name":"Saint-Philippe","term":"Town","latitude":"45.3721790","longitude":"-73.4907380"},{"name":"Saint-Philippe-de-Néri","term":"Parish Municipality","latitude":"47.4673850","longitude":"-69.8855100"},{"name":"Saint-Philémon","term":"Parish Municipality","latitude":"46.6788270","longitude":"-70.4504580"},{"name":"Saint-Pie","term":"Town","latitude":"45.5014630","longitude":"-72.8998410"},{"name":"Saint-Pie-de-Guire","term":"Parish Municipality","latitude":"46.0032880","longitude":"-72.7477440"},{"name":"Saint-Pierre","term":"Village Municipality","latitude":"46.0166666","longitude":"-73.4666667"},{"name":"Saint-Pierre-Baptiste","term":"Parish Municipality","latitude":"46.2044000","longitude":"-71.6178100"},{"name":"Saint-Pierre-de-Broughton","term":"Municipality","latitude":"46.2500000","longitude":"-71.2000000"},{"name":"Saint-Pierre-de-Lamy","term":"Municipality","latitude":"47.7833334","longitude":"-69.0000000"},{"name":"Saint-Pierre-de-l'Île-d'Orléans","term":"Municipality","latitude":"46.8833333","longitude":"-71.0666666"},{"name":"Saint-Pierre-de-la-Rivière-du-Sud","term":"Parish Municipality","latitude":"46.9141220","longitude":"-70.6264290"},{"name":"Saint-Pierre-les-Becquets","term":"Municipality","latitude":"46.5000000","longitude":"-72.2000000"},{"name":"Saint-Placide","term":"Municipality","latitude":"45.5333333","longitude":"-74.2000000"},{"name":"Saint-Polycarpe","term":"Municipality","latitude":"45.3000000","longitude":"-74.3000000"},{"name":"Saint-Prime","term":"Municipality","latitude":"48.5833333","longitude":"-72.3333333"},{"name":"Saint-Prosper","term":"Municipality","latitude":"46.2166666","longitude":"-70.4833334"},{"name":"Saint-Prosper-de-Champlain","term":"Municipality","latitude":"46.6166670","longitude":"-72.2833330"},{"name":"Saint-Raphaël","term":"Municipality","latitude":"46.8000000","longitude":"-70.7500000"},{"name":"Saint-Raymond","term":"Town","latitude":"46.8914350","longitude":"-71.8325490"},{"name":"Saint-René","term":"Parish Municipality","latitude":"46.0135520","longitude":"-70.6185460"},{"name":"Saint-René-de-Matane","term":"Municipality","latitude":"48.7000000","longitude":"-67.3833333"},{"name":"Saint-Robert","term":"Municipality","latitude":"45.9666670","longitude":"-73.0000000"},{"name":"Saint-Robert-Bellarmin","term":"Municipality","latitude":"45.7500000","longitude":"-70.5833333"},{"name":"Saint-Roch-Ouest","term":"Municipality","latitude":"45.8500000","longitude":"-73.6500000"},{"name":"Saint-Roch-de-Mékinac","term":"Parish Municipality","latitude":"46.8113440","longitude":"-72.7695020"},{"name":"Saint-Roch-de-Richelieu","term":"Municipality","latitude":"45.8833334","longitude":"-73.1666667"},{"name":"Saint-Roch-de-l'Achigan","term":"Municipality","latitude":"45.8500000","longitude":"-73.6000000"},{"name":"Saint-Roch-des-Aulnaies","term":"Municipality","latitude":"47.3098080","longitude":"-70.1802790"},{"name":"Saint-Romain","term":"Municipality","latitude":"45.7833333","longitude":"-71.1000000"},{"name":"Saint-Rosaire","term":"Parish Municipality","latitude":"46.1634910","longitude":"-72.0272910"},{"name":"Saint-Rémi","term":"Town","latitude":"45.2591660","longitude":"-73.6142860"},{"name":"Saint-Rémi-de-Tingwick","term":"Municipality","latitude":"45.8666670","longitude":"-71.8166670"},{"name":"Saint-Samuel","term":"Municipality","latitude":"46.0666667","longitude":"-72.2166667"},{"name":"Saint-Sauveur","term":"Town","latitude":"45.8957460","longitude":"-74.1531550"},{"name":"Saint-Simon","term":"Municipality","latitude":"45.7333330","longitude":"-72.8666670"},{"name":"Saint-Simon-de-Rimouski","term":"Municipality","latitude":"48.2020720","longitude":"-69.0437990"},{"name":"Saint-Simon-les-Mines","term":"Municipality","latitude":"46.2166666","longitude":"-70.6833333"},{"name":"Saint-Siméon","term":"Municipality","latitude":"47.8333333","longitude":"-69.8833334"},{"name":"Saint-Siméon","term":"Parish Municipality","latitude":"48.0717100","longitude":"-65.5710600"},{"name":"Saint-Sixte","term":"Municipality","latitude":"45.7000000","longitude":"-75.2166667"},{"name":"Saint-Stanislas","term":"Municipality","latitude":"46.6101190","longitude":"-72.3855240"},{"name":"Saint-Stanislas","term":"Municipality","latitude":"49.0063690","longitude":"-72.1770600"},{"name":"Saint-Stanislas-de-Kostka","term":"Municipality","latitude":"45.1770600","longitude":"-74.1288570"},{"name":"Saint-Sulpice","term":"Parish Municipality","latitude":"45.8265210","longitude":"-73.3562360"},{"name":"Saint-Sylvestre","term":"Municipality","latitude":"46.3649910","longitude":"-71.2229210"},{"name":"Saint-Sylvère","term":"Municipality","latitude":"46.2332820","longitude":"-72.2246540"},{"name":"Saint-Sébastien","term":"Municipality","latitude":"45.7833333","longitude":"-70.9666667"},{"name":"Saint-Sébastien","term":"Municipality","latitude":"45.1166670","longitude":"-73.1500000"},{"name":"Saint-Séverin","term":"Parish Municipality","latitude":"46.3257930","longitude":"-71.0544550"},{"name":"Saint-Séverin","term":"Parish Municipality","latitude":"46.6669410","longitude":"-72.5028720"},{"name":"Saint-Sévère","term":"Parish Municipality","latitude":"46.3466300","longitude":"-72.8984020"},{"name":"Saint-Tharcisius","term":"Parish Municipality","latitude":"48.5462910","longitude":"-67.3406600"},{"name":"Saint-Thomas","term":"Municipality","latitude":"46.0176240","longitude":"-73.3417100"},{"name":"Saint-Thomas-Didyme","term":"Municipality","latitude":"48.9083410","longitude":"-72.6648110"},{"name":"Saint-Thuribe","term":"Parish Municipality","latitude":"46.7053830","longitude":"-72.1672960"},{"name":"Saint-Théodore-d'Acton","term":"Municipality","latitude":"45.6848100","longitude":"-72.5773020"},{"name":"Saint-Théophile","term":"Municipality","latitude":"45.9368630","longitude":"-70.4860770"},{"name":"Saint-Tite","term":"Town","latitude":"46.7269520","longitude":"-72.5644550"},{"name":"Saint-Tite-des-Caps","term":"Municipality","latitude":"47.1416830","longitude":"-70.7707290"},{"name":"Saint-Télesphore","term":"Municipality","latitude":"45.2932660","longitude":"-74.3920600"},{"name":"Saint-Ubalde","term":"Municipality","latitude":"46.7559940","longitude":"-72.2708680"},{"name":"Saint-Ulric","term":"Municipality","latitude":"48.7875350","longitude":"-67.6989830"},{"name":"Saint-Urbain","term":"Parish Municipality","latitude":"47.5572050","longitude":"-70.5401020"},{"name":"Saint-Urbain-Premier","term":"Municipality","latitude":"45.2204270","longitude":"-73.7389690"},{"name":"Saint-Valentin","term":"Municipality","latitude":"45.1291880","longitude":"-73.3253430"},{"name":"Saint-Vallier","term":"Municipality","latitude":"46.8931440","longitude":"-70.8242040"},{"name":"Saint-Valère","term":"Municipality","latitude":"46.0658160","longitude":"-72.0960850"},{"name":"Saint-Valérien","term":"Parish Municipality","latitude":"48.3386800","longitude":"-68.6567610"},{"name":"Saint-Valérien-de-Milton","term":"Municipality","latitude":"45.5600580","longitude":"-72.7125910"},{"name":"Saint-Venant-de-Paquette","term":"Municipality","latitude":"45.1249630","longitude":"-71.4619330"},{"name":"Saint-Vianney","term":"Municipality","latitude":"48.6173020","longitude":"-67.4120440"},{"name":"Saint-Victor","term":"Municipality","latitude":"46.1465240","longitude":"-70.9036110"},{"name":"Saint-Wenceslas","term":"Municipality","latitude":"46.1657750","longitude":"-72.3267350"},{"name":"Saint-Zacharie","term":"Municipality","latitude":"46.1265490","longitude":"-70.3632660"},{"name":"Saint-Zotique","term":"Town","latitude":"45.2416830","longitude":"-74.2491050"},{"name":"Saint-Zénon","term":"Municipality","latitude":"46.5603940","longitude":"-73.8173270"},{"name":"Saint-Zénon-du-Lac-Humqui","term":"Parish Municipality","latitude":"48.3057910","longitude":"-67.5798490"},{"name":"Saint-Zéphirin-de-Courval","term":"Parish Municipality","latitude":"46.0567770","longitude":"-72.6226430"},{"name":"Saint-Édouard","term":"Municipality","latitude":"45.2333334","longitude":"-73.5166667"},{"name":"Saint-Édouard-de-Fabre","term":"Parish Municipality","latitude":"47.1978210","longitude":"-79.3662610"},{"name":"Saint-Édouard-de-Lotbinière","term":"Parish Municipality","latitude":"46.5688710","longitude":"-71.8371880"},{"name":"Saint-Édouard-de-Maskinongé","term":"Municipality","latitude":"46.3333334","longitude":"-73.1500000"},{"name":"Saint-Élie-de-Caxton","term":"Municipality","latitude":"46.4833330","longitude":"-72.9666670"},{"name":"Saint-Éloi","term":"Parish Municipality","latitude":"48.0365880","longitude":"-69.2299790"},{"name":"Saint-Émile-de-Suffolk","term":"Municipality","latitude":"45.9333333","longitude":"-74.9166666"},{"name":"Saint-Éphrem-de-Beauce","term":"Municipality","latitude":"46.0666670","longitude":"-70.9500000"},{"name":"Saint-Épiphane","term":"Municipality","latitude":"47.9000000","longitude":"-69.3333333"},{"name":"Saint-Étienne-de-Beauharnois","term":"Municipality","latitude":"45.2500000","longitude":"-73.9166667"},{"name":"Saint-Étienne-de-Bolton","term":"Municipality","latitude":"45.2666667","longitude":"-72.3666666"},{"name":"Saint-Étienne-des-Grès","term":"Parish Municipality","latitude":"46.4404330","longitude":"-72.7729490"},{"name":"Sainte-Adèle","term":"Town","latitude":"45.9553550","longitude":"-74.1393740"},{"name":"Sainte-Agathe-de-Lotbinière","term":"Municipality","latitude":"46.3833333","longitude":"-71.4166667"},{"name":"Sainte-Agathe-des-Monts","term":"Town","latitude":"46.0476300","longitude":"-74.2836490"},{"name":"Sainte-Angèle-de-Monnoir","term":"Municipality","latitude":"45.3833330","longitude":"-73.1000000"},{"name":"Sainte-Angèle-de-Mérici","term":"Municipality","latitude":"48.5333333","longitude":"-68.0833333"},{"name":"Sainte-Angèle-de-Prémont","term":"Municipality","latitude":"46.3666667","longitude":"-73.0500000"},{"name":"Sainte-Anne-de-Beaupré","term":"Town","latitude":"47.0160190","longitude":"-70.9478880"},{"name":"Sainte-Anne-de-Bellevue","term":"Town","latitude":"45.4038550","longitude":"-73.9523970"},{"name":"Sainte-Anne-de-Sabrevois","term":"Parish Municipality","latitude":"45.2054520","longitude":"-73.2282240"},{"name":"Sainte-Anne-de-Sorel","term":"Municipality","latitude":"46.0608333","longitude":"-73.0208333"},{"name":"Sainte-Anne-de-la-Pocatière","term":"Parish Municipality","latitude":"47.3461380","longitude":"-70.0288130"},{"name":"Sainte-Anne-de-la-Pérade","term":"Municipality","latitude":"46.5833333","longitude":"-72.2000000"},{"name":"Sainte-Anne-de-la-Rochelle","term":"Municipality","latitude":"45.4000000","longitude":"-72.4000000"},{"name":"Sainte-Anne-des-Lacs","term":"Parish Municipality","latitude":"45.8602380","longitude":"-74.1279320"},{"name":"Sainte-Anne-des-Monts","term":"Town","latitude":"49.1300100","longitude":"-66.4876690"},{"name":"Sainte-Anne-des-Plaines","term":"Town","latitude":"45.7601440","longitude":"-73.8157000"},{"name":"Sainte-Anne-du-Lac","term":"Municipality","latitude":"46.8833333","longitude":"-75.3333333"},{"name":"Sainte-Apolline-de-Patton","term":"Parish Municipality","latitude":"46.8066440","longitude":"-70.1943910"},{"name":"Sainte-Aurélie","term":"Municipality","latitude":"46.1833333","longitude":"-70.3666667"},{"name":"Sainte-Barbe","term":"Municipality","latitude":"45.1666670","longitude":"-74.2000000"},{"name":"Sainte-Brigide-d'Iberville","term":"Municipality","latitude":"45.3166667","longitude":"-73.0666667"},{"name":"Sainte-Brigitte-de-Laval","term":"Town","latitude":"47.0024410","longitude":"-71.1935630"},{"name":"Sainte-Brigitte-des-Saults","term":"Parish Municipality","latitude":"46.0274320","longitude":"-72.4826040"},{"name":"Sainte-Béatrix","term":"Municipality","latitude":"46.2000000","longitude":"-73.6166666"},{"name":"Sainte-Catherine","term":"Town","latitude":"45.4054720","longitude":"-73.5715410"},{"name":"Sainte-Catherine-de-Hatley","term":"Municipality","latitude":"45.2500000","longitude":"-72.0500000"},{"name":"Sainte-Catherine-de-la-Jacques-Cartier","term":"Town","latitude":"46.8448580","longitude":"-71.6175380"},{"name":"Sainte-Christine","term":"Parish Municipality","latitude":"45.6154720","longitude":"-72.4278040"},{"name":"Sainte-Christine-d'Auvergne","term":"Municipality","latitude":"46.8166667","longitude":"-71.9666667"},{"name":"Sainte-Claire","term":"Municipality","latitude":"46.6000000","longitude":"-70.8666666"},{"name":"Sainte-Clotilde","term":"Municipality","latitude":"45.1500000","longitude":"-73.6833330"},{"name":"Sainte-Clotilde-de-Beauce","term":"Municipality","latitude":"46.1333333","longitude":"-71.0333333"},{"name":"Sainte-Clotilde-de-Horton","term":"Municipality","latitude":"45.9833333","longitude":"-72.2333334"},{"name":"Sainte-Croix","term":"Municipality","latitude":"46.6166667","longitude":"-71.7333333"},{"name":"Sainte-Cécile-de-Lévrard","term":"Parish Municipality","latitude":"46.4665440","longitude":"-72.1617630"},{"name":"Sainte-Cécile-de-Milton","term":"Municipality","latitude":"45.4833330","longitude":"-72.7500000"},{"name":"Sainte-Cécile-de-Whitton","term":"Municipality","latitude":"45.6666667","longitude":"-70.9333334"},{"name":"Sainte-Edwidge-de-Clifton","term":"Township Municipality","latitude":"45.2000000","longitude":"-71.6833333"},{"name":"Sainte-Eulalie","term":"Municipality","latitude":"46.1000000","longitude":"-72.2500000"},{"name":"Sainte-Euphémie-sur-Rivière-du-Sud","term":"Municipality","latitude":"46.7666667","longitude":"-70.4333333"},{"name":"Sainte-Famille-de-l'Île-d'Orléans","term":"Municipality","latitude":"46.9666667","longitude":"-70.9666667"},{"name":"Sainte-Flavie","term":"Parish Municipality","latitude":"48.6103470","longitude":"-68.2284880"},{"name":"Sainte-Florence","term":"Municipality","latitude":"48.2666667","longitude":"-67.2333333"},{"name":"Sainte-Foy–Sillery–Cap-Rouge","term":"Borough","latitude":"46.7666670","longitude":"-71.3083330"},{"name":"Sainte-Françoise","term":"Parish Municipality","latitude":"48.0951660","longitude":"-69.0675990"},{"name":"Sainte-Françoise","term":"Municipality","latitude":"46.4500000","longitude":"-71.9833334"},{"name":"Sainte-Félicité","term":"Municipality","latitude":"46.9500000","longitude":"-69.9333333"},{"name":"Sainte-Félicité","term":"Municipality","latitude":"48.9000000","longitude":"-67.3333334"},{"name":"Sainte-Geneviève-de-Batiscan","term":"Parish Municipality","latitude":"46.5322430","longitude":"-72.3389300"},{"name":"Sainte-Geneviève-de-Berthier","term":"Municipality","latitude":"46.0833330","longitude":"-73.2166670"},{"name":"Sainte-Germaine-Boulé","term":"Municipality","latitude":"48.6000000","longitude":"-79.1166666"},